name,company,street,postcode,city,country,capacity,energy_source,technology,chp,commissioned,type,lat,lon,eic_code,energy_source_level_1,energy_source_level_2,energy_source_level_3,additional_info,comment,source
"Val Giuf",,,,Rueras,CH,1.5,Hydro,Run-of-river,,1979,,46.6713364433,8.75072947495,,"Renewable energy",Hydro,,,,https://www.bfe.admin.ch/bfe/de/home/versorgung/statistik-und-geodaten/geoinformation/geodaten/wasser/statistik-der-wasserkraftanlagen.html
"Val Strem",,,,Sedrun,CH,2,Hydro,Run-of-river,,2009,,,,,"Renewable energy",Hydro,,,,https://www.bfe.admin.ch/bfe/de/home/versorgung/statistik-und-geodaten/geoinformation/geodaten/wasser/statistik-der-wasserkraftanlagen.html
"Sedrun 1",,,,Sedrun,CH,150,Hydro,Reservoir,,2011,,46.670049651,8.76860353742,12W-0000000021-S,"Renewable energy",Hydro,,,"- Zentralen Sedrun 1 und Sedrun 2 in einer Kaverne; ",https://www.bfe.admin.ch/bfe/de/home/versorgung/statistik-und-geodaten/geoinformation/geodaten/wasser/statistik-der-wasserkraftanlagen.html
"Sedrun 2",,,,Sedrun,CH,0.75,Hydro,Run-of-river,,1968,,46.670049651,8.76860353742,12W-0000000021-S,"Renewable energy",Hydro,,,"- Zentralen Sedrun 1 und Sedrun 2 in einer Kaverne; ",https://www.bfe.admin.ch/bfe/de/home/versorgung/statistik-und-geodaten/geoinformation/geodaten/wasser/statistik-der-wasserkraftanlagen.html
"Tavanasa (KVR)",,,,Tavanasa,CH,180,Hydro,Reservoir,,1962,,46.7510368203,9.04692392804,12W-0000000021-S,"Renewable energy",Hydro,,,,https://www.bfe.admin.ch/bfe/de/home/versorgung/statistik-und-geodaten/geoinformation/geodaten/wasser/statistik-der-wasserkraftanlagen.html
Russein,,,,Somvix,CH,24.87,Hydro,Run-of-river,,2015,,46.7202818447,8.89856834691,,"Renewable energy",Hydro,,,,https://www.bfe.admin.ch/bfe/de/home/versorgung/statistik-und-geodaten/geoinformation/geodaten/wasser/statistik-der-wasserkraftanlagen.html
Ferrera,,,,Trun,CH,4.23,Hydro,Run-of-river,,1999,,46.7435050176,8.98649363197,12W-0000000016-H,"Renewable energy",Hydro,,,,https://www.bfe.admin.ch/bfe/de/home/versorgung/statistik-und-geodaten/geoinformation/geodaten/wasser/statistik-der-wasserkraftanlagen.html
Trun,,,,Trun,CH,0.6,Hydro,Run-of-river,,2005,,46.7435050176,8.98649363197,,"Renewable energy",Hydro,,,"#NAME?; ",https://www.bfe.admin.ch/bfe/de/home/versorgung/statistik-und-geodaten/geoinformation/geodaten/wasser/statistik-der-wasserkraftanlagen.html
"Dardin (Casut)",,,,"Dardin, Casut",CH,0.4,Hydro,Run-of-river,,2008,,46.7573816308,9.04999337816,,"Renewable energy",Hydro,,,"#NAME?; ",https://www.bfe.admin.ch/bfe/de/home/versorgung/statistik-und-geodaten/geoinformation/geodaten/wasser/statistik-der-wasserkraftanlagen.html
"Tavanasa (AHSAG)",,,,Tavanasa,CH,10.14,Hydro,Run-of-river,,1946,,,,,"Renewable energy",Hydro,,,,https://www.bfe.admin.ch/bfe/de/home/versorgung/statistik-und-geodaten/geoinformation/geodaten/wasser/statistik-der-wasserkraftanlagen.html
"Kraftwerk Tschar",,,,"Obersaxen, St. Joseph",CH,4.26,Hydro,Run-of-river,,2017,,,,,"Renewable energy",Hydro,,,,https://www.bfe.admin.ch/bfe/de/home/versorgung/statistik-und-geodaten/geoinformation/geodaten/wasser/statistik-der-wasserkraftanlagen.html
Brigels-Tavanasa,,,,Tavanasa,CH,12.5,Hydro,Run-of-river,,1960,,46.7580621697,9.07174622905,,"Renewable energy",Hydro,,,"- Ersatzenergie:	Abgabe an Repower AG als Realersatz für das stillgelegte Kraftwerk Waltensburg  ;                                    ; ",https://www.bfe.admin.ch/bfe/de/home/versorgung/statistik-und-geodaten/geoinformation/geodaten/wasser/statistik-der-wasserkraftanlagen.html
Ladral,,,,Waltensburg,CH,5.1,Hydro,Run-of-river,,1973,,46.771415734,9.11876991407,,"Renewable energy",Hydro,,,,https://www.bfe.admin.ch/bfe/de/home/versorgung/statistik-und-geodaten/geoinformation/geodaten/wasser/statistik-der-wasserkraftanlagen.html
"Ilanz 1 (Stufe Tavanasa)",,,,Ilanz,CH,34.5,Hydro,Run-of-river,,1990,,46.7747637594,9.1952255793,,"Renewable energy",Hydro,,,"- Zentralen Ilanz 1 und Ilanz 2 in einem Gebäude              ; ",https://www.bfe.admin.ch/bfe/de/home/versorgung/statistik-und-geodaten/geoinformation/geodaten/wasser/statistik-der-wasserkraftanlagen.html
"Ilanz 2 (Stufe Panix (Pigniu))",,,,Ilanz,CH,49.5,Hydro,Reservoir,,1992,,46.7747637594,9.1952255793,,"Renewable energy",Hydro,,,"- Zentralen Ilanz 1 und Ilanz 2 in einem Gebäude              ; ",https://www.bfe.admin.ch/bfe/de/home/versorgung/statistik-und-geodaten/geoinformation/geodaten/wasser/statistik-der-wasserkraftanlagen.html
"Seekraftwerk Zervreila",,,,"Vals, Staumauer Zervreila",CH,22,Hydro,Reservoir,,1999,,46.5789495911,9.1193155643,12W-0000000011-W,"Renewable energy",Hydro,,,"- Ampervreila und Peilerbach werden nur im Sommer genutzt (Zubringer-Pumpbetrieb)       ;                                          ; ",https://www.bfe.admin.ch/bfe/de/home/versorgung/statistik-und-geodaten/geoinformation/geodaten/wasser/statistik-der-wasserkraftanlagen.html
"Safien Platz",,,,"Safien Platz",CH,90,Hydro,Reservoir,,1997,,46.6778242878,9.31587383275,12W-0000000011-W,"Renewable energy",Hydro,,,,https://www.bfe.admin.ch/bfe/de/home/versorgung/statistik-und-geodaten/geoinformation/geodaten/wasser/statistik-der-wasserkraftanlagen.html
Rothenbrunnen,,,,Rothenbrunnen,CH,135,Hydro,Reservoir,,2011,,46.7658960254,9.41820114963,12W-0000000011-W,"Renewable energy",Hydro,,,,https://www.bfe.admin.ch/bfe/de/home/versorgung/statistik-und-geodaten/geoinformation/geodaten/wasser/statistik-der-wasserkraftanlagen.html
Rabiusa-Realta,,,,Rothenbrunnen,CH,26,Hydro,Run-of-river,,2004,,46.7649113824,9.41790308497,12W-0000000011-W,"Renewable energy",Hydro,,,,https://www.bfe.admin.ch/bfe/de/home/versorgung/statistik-und-geodaten/geoinformation/geodaten/wasser/statistik-der-wasserkraftanlagen.html
Lunschania,,,,"St. Martin, Lunschania",CH,0.94,Hydro,Run-of-river,,1996,,46.6601503473,9.18823038522,,"Renewable energy",Hydro,,,,https://www.bfe.admin.ch/bfe/de/home/versorgung/statistik-und-geodaten/geoinformation/geodaten/wasser/statistik-der-wasserkraftanlagen.html
Bargaus,,,,Sagogn,CH,2.82,Hydro,Run-of-river,,1963,,46.7931455833,9.27364512391,,"Renewable energy",Hydro,,,,https://www.bfe.admin.ch/bfe/de/home/versorgung/statistik-und-geodaten/geoinformation/geodaten/wasser/statistik-der-wasserkraftanlagen.html
"Punt Gronda (Segnas)",,,,Flims,CH,2.62,Hydro,Run-of-river,,2012,,46.8384516549,9.26509335259,,"Renewable energy",Hydro,,,"- Zentralen Punt Gronda (Segnas), Punt Gronda (Platt Alva) und Punt Gronda (Tarschlims) in einem Gebäude; ",https://www.bfe.admin.ch/bfe/de/home/versorgung/statistik-und-geodaten/geoinformation/geodaten/wasser/statistik-der-wasserkraftanlagen.html
"Punt Gronda (Platt Alva)",,,,Flims,CH,0.64,Hydro,Run-of-river,,2012,,46.8384516549,9.26509335259,,"Renewable energy",Hydro,,,"- Zentrale Punt Gronda (Platt Alva), Punt Gronda (Segnas) und Punt Gronda (Tarschlims) in einem Gebäude;  ; ",https://www.bfe.admin.ch/bfe/de/home/versorgung/statistik-und-geodaten/geoinformation/geodaten/wasser/statistik-der-wasserkraftanlagen.html
"Punt Gronda (Tarschlims)",,,,Flims,CH,0.3,Hydro,Run-of-river,,2013,,46.8384516549,9.26509335259,,"Renewable energy",Hydro,,,"- Zentrale Punt Gronda (Tarschlims), Punt Gronda (Platt Alva) und  Punt Gronda (Segnas) in einem Gebäude; #NAME?; ",https://www.bfe.admin.ch/bfe/de/home/versorgung/statistik-und-geodaten/geoinformation/geodaten/wasser/statistik-der-wasserkraftanlagen.html
"Stenna (Flims) Flembach",,,,Flims,CH,1.73,Hydro,Run-of-river,,1999,,46.8337568535,9.28289622392,,"Renewable energy",Hydro,,,,https://www.bfe.admin.ch/bfe/de/home/versorgung/statistik-und-geodaten/geoinformation/geodaten/wasser/statistik-der-wasserkraftanlagen.html
"Flims, Felsbach (Karstwasser)",,,,Flims,CH,0.88,Hydro,Run-of-river,,2011,,46.8340905068,9.31765249379,,"Renewable energy",Hydro,,,"- Zentrale Flims, Felsbach (Karstwasser) und Zentrale Flims, Felsbach (Bergwasser) sind in einem Gebäude Felsbach			;   			;  ; 			;  ; ",https://www.bfe.admin.ch/bfe/de/home/versorgung/statistik-und-geodaten/geoinformation/geodaten/wasser/statistik-der-wasserkraftanlagen.html
"Flims, Felsbach (Bergwasser)",,,,Flims,CH,0.28,Hydro,Run-of-river,,2011,,46.8340905068,9.31765249379,,"Renewable energy",Hydro,,,"- Zentrale Flims, Felsbach (Bergwasser) und Zentrale Flims, Felsbach (Karstwasser) sind in einem Gebäude Felsbach		; ",https://www.bfe.admin.ch/bfe/de/home/versorgung/statistik-und-geodaten/geoinformation/geodaten/wasser/statistik-der-wasserkraftanlagen.html
Mulin,,,,"Trin Mulin",CH,1.6,Hydro,Run-of-river,,2004,,46.833447951,9.34018135796,,"Renewable energy",Hydro,,,,https://www.bfe.admin.ch/bfe/de/home/versorgung/statistik-und-geodaten/geoinformation/geodaten/wasser/statistik-der-wasserkraftanlagen.html
Pintrun,,,,Trin,CH,6.48,Hydro,Run-of-river,,1944,,46.8148577632,9.34883064445,,"Renewable energy",Hydro,,,,https://www.bfe.admin.ch/bfe/de/home/versorgung/statistik-und-geodaten/geoinformation/geodaten/wasser/statistik-der-wasserkraftanlagen.html
"Ferrera 1",,,,Ausserferrera,CH,180,Hydro,"Pumped storage",,2017,,46.5329177645,9.43419338513,12W-0000000016-H,"Renewable energy",Hydro,,,"- Zentralen Ferrera 1 und Ferrera 2 in einem Gebäude          ; ",https://www.bfe.admin.ch/bfe/de/home/versorgung/statistik-und-geodaten/geoinformation/geodaten/wasser/statistik-der-wasserkraftanlagen.html
"Ferrera 2",,,,Ausserferrera,CH,4.4,Hydro,Run-of-river,,2017,,46.5329177645,9.43419338513,12W-0000000016-H,"Renewable energy",Hydro,,,"- Zentralen Ferrera 1 und Ferrera 2 in einem Gebäude          ; ",https://www.bfe.admin.ch/bfe/de/home/versorgung/statistik-und-geodaten/geoinformation/geodaten/wasser/statistik-der-wasserkraftanlagen.html
Nufenen,,,,Nufenen,CH,0.3,Hydro,Run-of-river,,2009,,46.5430537927,9.24795177052,,"Renewable energy",Hydro,,,,https://www.bfe.admin.ch/bfe/de/home/versorgung/statistik-und-geodaten/geoinformation/geodaten/wasser/statistik-der-wasserkraftanlagen.html
"Splügen (Tambobach)",,,,Splügen,CH,1.8,Hydro,Run-of-river,,2012,,46.5459228175,9.30973326414,,"Renewable energy",Hydro,,,,https://www.bfe.admin.ch/bfe/de/home/versorgung/statistik-und-geodaten/geoinformation/geodaten/wasser/statistik-der-wasserkraftanlagen.html
"Stauanlage Sufers Dotieranlage",,,,Sufers,CH,0.71,Hydro,Run-of-river,,2010,,,,,"Renewable energy",Hydro,,,"- Dotieranlage wurde 1989 erbaut; - Erneuerung der Dotieranlage im Rahmen der Gesamterneuerung der KWH (2010 - 2017); ",https://www.bfe.admin.ch/bfe/de/home/versorgung/statistik-und-geodaten/geoinformation/geodaten/wasser/statistik-der-wasserkraftanlagen.html
Bärenburg,,,,Andeer,CH,220,Hydro,Reservoir,,2017,,46.5901915365,9.42142722621,12W-0000000016-H,"Renewable energy",Hydro,,,,https://www.bfe.admin.ch/bfe/de/home/versorgung/statistik-und-geodaten/geoinformation/geodaten/wasser/statistik-der-wasserkraftanlagen.html
"Bärenburg Dotieranlage",,,,Andeer,CH,1.6,Hydro,Run-of-river,,2017,,46.5901915365,9.42142722621,12W-0000000016-H,"Renewable energy",Hydro,,,,https://www.bfe.admin.ch/bfe/de/home/versorgung/statistik-und-geodaten/geoinformation/geodaten/wasser/statistik-der-wasserkraftanlagen.html
Sils,,,,"Sils, Nisellas",CH,247,Hydro,Reservoir,,1961,,46.7031360141,9.46664904976,12W-0000000016-H,"Renewable energy",Hydro,,,,https://www.bfe.admin.ch/bfe/de/home/versorgung/statistik-und-geodaten/geoinformation/geodaten/wasser/statistik-der-wasserkraftanlagen.html
Thusis,,,,Thusis,CH,4.6,Hydro,Run-of-river,,2017,,46.6901486217,9.44288408447,,"Renewable energy",Hydro,,,,https://www.bfe.admin.ch/bfe/de/home/versorgung/statistik-und-geodaten/geoinformation/geodaten/wasser/statistik-der-wasserkraftanlagen.html
Frauenkirch,,,,"Davos, Frauenkirch",CH,0.7,Hydro,Run-of-river,,1963,,46.7688686224,9.80558112281,,"Renewable energy",Hydro,,,,https://www.bfe.admin.ch/bfe/de/home/versorgung/statistik-und-geodaten/geoinformation/geodaten/wasser/statistik-der-wasserkraftanlagen.html
Glaris,,,,"Davos, Glaris",CH,1.13,Hydro,Run-of-river,,1964,,46.7360930283,9.77586865383,,"Renewable energy",Hydro,,,,https://www.bfe.admin.ch/bfe/de/home/versorgung/statistik-und-geodaten/geoinformation/geodaten/wasser/statistik-der-wasserkraftanlagen.html
Filisur,,,,Filisur,CH,65,Hydro,Run-of-river,,2002,,46.6698919694,9.68920263555,,"Renewable energy",Hydro,,,,https://www.bfe.admin.ch/bfe/de/home/versorgung/statistik-und-geodaten/geoinformation/geodaten/wasser/statistik-der-wasserkraftanlagen.html
Filisur-Tiefencastel,,,,Tiefencastel,CH,24,Hydro,Run-of-river,,1989,,46.6608466013,9.57955507518,,"Renewable energy",Hydro,,,,https://www.bfe.admin.ch/bfe/de/home/versorgung/statistik-und-geodaten/geoinformation/geodaten/wasser/statistik-der-wasserkraftanlagen.html
"Stalvedro (Julia)",,,,Bivio,CH,0.65,Hydro,Run-of-river,,1980,,46.4796105068,9.6452128901,12W-0000000064-3,"Renewable energy",Hydro,,,,https://www.bfe.admin.ch/bfe/de/home/versorgung/statistik-und-geodaten/geoinformation/geodaten/wasser/statistik-der-wasserkraftanlagen.html
"Mulegn, Tinizong-Rona",,,,Tinizong-Rona,CH,7,Hydro,Run-of-river,,2016,,,,,"Renewable energy",Hydro,,,,https://www.bfe.admin.ch/bfe/de/home/versorgung/statistik-und-geodaten/geoinformation/geodaten/wasser/statistik-der-wasserkraftanlagen.html
Tinizong,,,,Tinizong,CH,69.5,Hydro,Reservoir,,1971,,46.5825064851,9.61064835764,,"Renewable energy",Hydro,,,,https://www.bfe.admin.ch/bfe/de/home/versorgung/statistik-und-geodaten/geoinformation/geodaten/wasser/statistik-der-wasserkraftanlagen.html
Nandrò,,,,"Riom - Parsonz",CH,1.59,Hydro,Run-of-river,,2011,,46.5681520979,9.5702754213,,"Renewable energy",Hydro,,,,https://www.bfe.admin.ch/bfe/de/home/versorgung/statistik-und-geodaten/geoinformation/geodaten/wasser/statistik-der-wasserkraftanlagen.html
"Tiefencastel Ost",,,,Tiefencastel,CH,52,Hydro,Reservoir,,1970,,46.6644016578,9.56270347437,,"Renewable energy",Hydro,,,"#NAME?;                                                  ; ",https://www.bfe.admin.ch/bfe/de/home/versorgung/statistik-und-geodaten/geoinformation/geodaten/wasser/statistik-der-wasserkraftanlagen.html
"Tiefencastel West",,,,Tiefencastel,CH,26,Hydro,Run-of-river,,1949,,46.6644016578,9.56270347437,,"Renewable energy",Hydro,,,"#NAME?;                                                  ; ",https://www.bfe.admin.ch/bfe/de/home/versorgung/statistik-und-geodaten/geoinformation/geodaten/wasser/statistik-der-wasserkraftanlagen.html
Solis,,,,Vaz/Obervaz,CH,7.3,Hydro,Run-of-river,,1978,,46.6819220936,9.52521300017,,"Renewable energy",Hydro,,,,https://www.bfe.admin.ch/bfe/de/home/versorgung/statistik-und-geodaten/geoinformation/geodaten/wasser/statistik-der-wasserkraftanlagen.html
"Sils (EWZ)",,,,"Sils im Domleschg",CH,26,Hydro,Run-of-river,,1996,,46.7040817391,9.46406852744,12W-0000000016-H,"Renewable energy",Hydro,,,"#NAME?; ",https://www.bfe.admin.ch/bfe/de/home/versorgung/statistik-und-geodaten/geoinformation/geodaten/wasser/statistik-der-wasserkraftanlagen.html
"Rothenbrunnen (EWZ)",,,,Rothenbrunnen,CH,44,Hydro,Reservoir,,1976,,46.7739461705,9.42098533692,12W-0000000011-W,"Renewable energy",Hydro,,,,https://www.bfe.admin.ch/bfe/de/home/versorgung/statistik-und-geodaten/geoinformation/geodaten/wasser/statistik-der-wasserkraftanlagen.html
Reichenau,,,,Domat-Ems,CH,19.06,Hydro,Run-of-river,,1962,,46.8377337086,9.44733101447,,"Renewable energy",Hydro,,,,https://www.bfe.admin.ch/bfe/de/home/versorgung/statistik-und-geodaten/geoinformation/geodaten/wasser/statistik-der-wasserkraftanlagen.html
Arosa-Litzirüti,,,,Litzirüti,CH,5,Hydro,Run-of-river,,1969,,46.8000493529,9.70591198066,,"Renewable energy",Hydro,,,,https://www.bfe.admin.ch/bfe/de/home/versorgung/statistik-und-geodaten/geoinformation/geodaten/wasser/statistik-der-wasserkraftanlagen.html
"KW Sagenbach",,,,"Lüen, Tewald",CH,3.55,Hydro,Run-of-river,,2013,,46.8284428074,9.60614992526,,"Renewable energy",Hydro,,,"- Zentralen Lüen (Sagenbach) und Lüen (Plessur, Clasaurer) in einem Gebäude; ",https://www.bfe.admin.ch/bfe/de/home/versorgung/statistik-und-geodaten/geoinformation/geodaten/wasser/statistik-der-wasserkraftanlagen.html
Molinis-Lüen,,,,"Lüen, Tewald",CH,7.2,Hydro,Run-of-river,,1990,,46.8284428074,9.60614992526,,"Renewable energy",Hydro,,,"- Zentralen Lüen (Plessur, Clasaurer) und Lüen (Sagenbach) in einem Gebäude; ",https://www.bfe.admin.ch/bfe/de/home/versorgung/statistik-und-geodaten/geoinformation/geodaten/wasser/statistik-der-wasserkraftanlagen.html
Plessurwerk,,,,"Chur, Sand",CH,9.4,Hydro,Run-of-river,,2011,,46.8404306281,9.54250541843,,"Renewable energy",Hydro,,,"#NAME?; ",https://www.bfe.admin.ch/bfe/de/home/versorgung/statistik-und-geodaten/geoinformation/geodaten/wasser/statistik-der-wasserkraftanlagen.html
Rabiusawerk,,,,"Chur, Sand",CH,0.71,Hydro,Run-of-river,,2012,,46.8404306281,9.54250541843,,"Renewable energy",Hydro,,,"#NAME?;  ; ",https://www.bfe.admin.ch/bfe/de/home/versorgung/statistik-und-geodaten/geoinformation/geodaten/wasser/statistik-der-wasserkraftanlagen.html
Klosters,,,,Klosters,CH,16.5,Hydro,Reservoir,,1982,,46.861014512,9.89557404649,,"Renewable energy",Hydro,,,,https://www.bfe.admin.ch/bfe/de/home/versorgung/statistik-und-geodaten/geoinformation/geodaten/wasser/statistik-der-wasserkraftanlagen.html
Schlappin,,,,Klosters-Dorf,CH,6.1,Hydro,Run-of-river,,2000,,46.8850480052,9.87855790113,,"Renewable energy",Hydro,,,,https://www.bfe.admin.ch/bfe/de/home/versorgung/statistik-und-geodaten/geoinformation/geodaten/wasser/statistik-der-wasserkraftanlagen.html
Küblis,,,,Küblis,CH,45.6,Hydro,Run-of-river,,2006,,46.913974185,9.78202924909,,"Renewable energy",Hydro,,,,https://www.bfe.admin.ch/bfe/de/home/versorgung/statistik-und-geodaten/geoinformation/geodaten/wasser/statistik-der-wasserkraftanlagen.html
Taschinas,,,,Seewis,CH,11.33,Hydro,Run-of-river,,2011,,46.9828412314,9.64486330331,,"Renewable energy",Hydro,,,,https://www.bfe.admin.ch/bfe/de/home/versorgung/statistik-und-geodaten/geoinformation/geodaten/wasser/statistik-der-wasserkraftanlagen.html
"Igiser Mülbach 1 (Landquart 1)",,,,Landquart-Fabriken,CH,0.5,Hydro,Run-of-river,,1978,,46.9593278102,9.57988985784,,"Renewable energy",Hydro,,,,https://www.bfe.admin.ch/bfe/de/home/versorgung/statistik-und-geodaten/geoinformation/geodaten/wasser/statistik-der-wasserkraftanlagen.html
"Igiser Mülbach 2 (Landquart 2)",,,,Landquart-Fabriken,CH,0.71,Hydro,Run-of-river,,1988,,46.9548019948,9.5668303331,,"Renewable energy",Hydro,,,,https://www.bfe.admin.ch/bfe/de/home/versorgung/statistik-und-geodaten/geoinformation/geodaten/wasser/statistik-der-wasserkraftanlagen.html
Mapragg,,,,Vadura,CH,279.9,Hydro,"Pumped storage",,1977,,46.9484407976,9.4812988795,12W-0000000917-6,"Renewable energy",Hydro,,,"#NAME?; #NAME?; ",https://www.bfe.admin.ch/bfe/de/home/versorgung/statistik-und-geodaten/geoinformation/geodaten/wasser/statistik-der-wasserkraftanlagen.html
Sarelli,,,,"Bad Ragaz",CH,90,Hydro,Reservoir,,1978,,46.9770980292,9.53865885488,12W-0000000917-6,"Renewable energy",Hydro,,,"#NAME?; ",https://www.bfe.admin.ch/bfe/de/home/versorgung/statistik-und-geodaten/geoinformation/geodaten/wasser/statistik-der-wasserkraftanlagen.html
Ragaz,,,,Ragaz,CH,0.7,Hydro,Run-of-river,,1956,,47.0000948296,9.50115288825,,"Renewable energy",Hydro,,,"#NAME?;                                              ; ",https://www.bfe.admin.ch/bfe/de/home/versorgung/statistik-und-geodaten/geoinformation/geodaten/wasser/statistik-der-wasserkraftanlagen.html
Jenins,,,,Jenins,CH,0.46,Hydro,Run-of-river,,1997,,46.9931780282,9.55480652195,,"Renewable energy",Hydro,,,,https://www.bfe.admin.ch/bfe/de/home/versorgung/statistik-und-geodaten/geoinformation/geodaten/wasser/statistik-der-wasserkraftanlagen.html
Valeis,,,,Vilters,CH,1.2,Hydro,Run-of-river,,2004,,47.0232622307,9.44809505335,,"Renewable energy",Hydro,,,,https://www.bfe.admin.ch/bfe/de/home/versorgung/statistik-und-geodaten/geoinformation/geodaten/wasser/statistik-der-wasserkraftanlagen.html
Grossbach,,,,"Wangs, Gaschiels",CH,0.7,Hydro,Run-of-river,,1993,,47.0258051067,9.44161096561,,"Renewable energy",Hydro,,,"#NAME?; ",https://www.bfe.admin.ch/bfe/de/home/versorgung/statistik-und-geodaten/geoinformation/geodaten/wasser/statistik-der-wasserkraftanlagen.html
Sevelen,,,,Sevelen,CH,1.14,Hydro,Run-of-river,,1989,,47.1209036183,9.48300188061,,"Renewable energy",Hydro,,,,https://www.bfe.admin.ch/bfe/de/home/versorgung/statistik-und-geodaten/geoinformation/geodaten/wasser/statistik-der-wasserkraftanlagen.html
Buchs-Vorderberg,,,,"Buchs, Waldrand",CH,0.98,Hydro,Run-of-river,,1987,,47.1490022349,9.44582705102,,"Renewable energy",Hydro,,,"#NAME?; ",https://www.bfe.admin.ch/bfe/de/home/versorgung/statistik-und-geodaten/geoinformation/geodaten/wasser/statistik-der-wasserkraftanlagen.html
Buchs-Tobeläckerli,,,,"Buchs, Steig - Aspenhölzli",CH,0.69,Hydro,Run-of-river,,2013,,47.1562316902,9.46456548914,,"Renewable energy",Hydro,,,"#NAME?; ",https://www.bfe.admin.ch/bfe/de/home/versorgung/statistik-und-geodaten/geoinformation/geodaten/wasser/statistik-der-wasserkraftanlagen.html
Buchs-Altendorf,,,,"Buchs, Altendorf",CH,3.56,Hydro,Run-of-river,,1987,,47.1569967916,9.46710077053,,"Renewable energy",Hydro,,,,https://www.bfe.admin.ch/bfe/de/home/versorgung/statistik-und-geodaten/geoinformation/geodaten/wasser/statistik-der-wasserkraftanlagen.html
"Grabs (Bannwald)",,,,"Grabs, Bannwald",CH,0.44,Hydro,Run-of-river,,1994,,47.17262767,9.41689346785,,"Renewable energy",Hydro,,,,https://www.bfe.admin.ch/bfe/de/home/versorgung/statistik-und-geodaten/geoinformation/geodaten/wasser/statistik-der-wasserkraftanlagen.html
"Grabs (Löchli)",,,,"Grabs, Löchli",CH,1.43,Hydro,Run-of-river,,1996,,47.1757270944,9.43020364886,,"Renewable energy",Hydro,,,,https://www.bfe.admin.ch/bfe/de/home/versorgung/statistik-und-geodaten/geoinformation/geodaten/wasser/statistik-der-wasserkraftanlagen.html
Sennwald,,,,Sennwald,CH,1.22,Hydro,Run-of-river,,1990,,47.2615761557,9.49605409189,,"Renewable energy",Hydro,,,,https://www.bfe.admin.ch/bfe/de/home/versorgung/statistik-und-geodaten/geoinformation/geodaten/wasser/statistik-der-wasserkraftanlagen.html
Lienz,,,,Lienz,CH,0.38,Hydro,Run-of-river,,1989,,47.2751747537,9.525398933,,"Renewable energy",Hydro,,,,https://www.bfe.admin.ch/bfe/de/home/versorgung/statistik-und-geodaten/geoinformation/geodaten/wasser/statistik-der-wasserkraftanlagen.html
"Blatten (SAK)",,,,"Oberriet, Blatten",CH,0.38,Hydro,Run-of-river,,1989,,47.307700421,9.56728348718,,"Renewable energy",Hydro,,,,https://www.bfe.admin.ch/bfe/de/home/versorgung/statistik-und-geodaten/geoinformation/geodaten/wasser/statistik-der-wasserkraftanlagen.html
Montlingen,,,,Montlingen,CH,0.38,Hydro,Run-of-river,,1989,,47.3392405944,9.57926456954,,"Renewable energy",Hydro,,,,https://www.bfe.admin.ch/bfe/de/home/versorgung/statistik-und-geodaten/geoinformation/geodaten/wasser/statistik-der-wasserkraftanlagen.html
"Gstaldenbach, Heiden",,,,"Heiden, Hinterlochen",CH,0.72,Hydro,Run-of-river,,1982,,,,,"Renewable energy",Hydro,,,,https://www.bfe.admin.ch/bfe/de/home/versorgung/statistik-und-geodaten/geoinformation/geodaten/wasser/statistik-der-wasserkraftanlagen.html
Lochmühle,,,,"Untereggen, Lochmüli",CH,0.63,Hydro,Run-of-river,,2003,,47.4603255412,9.43979811879,,"Renewable energy",Hydro,,,,https://www.bfe.admin.ch/bfe/de/home/versorgung/statistik-und-geodaten/geoinformation/geodaten/wasser/statistik-der-wasserkraftanlagen.html
"Morgental (Abwasser)",,,,Steinach,CH,1.2,Hydro,Run-of-river,,2014,,47.5005666197,9.42790432392,,"Renewable energy",Hydro,,,"#NAME?; ",https://www.bfe.admin.ch/bfe/de/home/versorgung/statistik-und-geodaten/geoinformation/geodaten/wasser/statistik-der-wasserkraftanlagen.html
Schaffhausen,,,,Schaffhausen,CH,28.9,Hydro,Run-of-river,,1964,,47.6931243898,8.63042746026,,"Renewable energy",Hydro,,,,https://www.bfe.admin.ch/bfe/de/home/versorgung/statistik-und-geodaten/geoinformation/geodaten/wasser/statistik-der-wasserkraftanlagen.html
Engeweiher,,,,Schaffhausen,CH,5,Hydro,"Pumped storage with natural inflow",,1993,,47.6934840779,8.63043555306,,"Renewable energy",Hydro,,,"#NAME?; ",https://www.bfe.admin.ch/bfe/de/home/versorgung/statistik-und-geodaten/geoinformation/geodaten/wasser/statistik-der-wasserkraftanlagen.html
Neuhausen,,,,Neuhausen,CH,5.6,Hydro,Run-of-river,,2011,,47.6798806585,8.61494656661,,"Renewable energy",Hydro,,,,https://www.bfe.admin.ch/bfe/de/home/versorgung/statistik-und-geodaten/geoinformation/geodaten/wasser/statistik-der-wasserkraftanlagen.html
Rheinau,,,,Rheinau,CH,36.8,Hydro,Run-of-river,,2005,,47.6389102371,8.60166117811,,"Renewable energy",Hydro,,,,https://www.bfe.admin.ch/bfe/de/home/versorgung/statistik-und-geodaten/geoinformation/geodaten/wasser/statistik-der-wasserkraftanlagen.html
Giessen,,,,"Nesslau, unterer Giessenfall",CH,1.9,Hydro,Run-of-river,,2001,,47.2178452198,9.20939259186,,"Renewable energy",Hydro,,,,https://www.bfe.admin.ch/bfe/de/home/versorgung/statistik-und-geodaten/geoinformation/geodaten/wasser/statistik-der-wasserkraftanlagen.html
"Nesslau (Ijentalerbach)",,,,"Nesslau, Schneit",CH,1.25,Hydro,Run-of-river,,2010,,47.2216373141,9.18495516077,,"Renewable energy",Hydro,,,,https://www.bfe.admin.ch/bfe/de/home/versorgung/statistik-und-geodaten/geoinformation/geodaten/wasser/statistik-der-wasserkraftanlagen.html
Herrentöbeli,,,,Krummenau,CH,0.84,Hydro,Run-of-river,,1991,,47.2447757187,9.17791678684,,"Renewable energy",Hydro,,,,https://www.bfe.admin.ch/bfe/de/home/versorgung/statistik-und-geodaten/geoinformation/geodaten/wasser/statistik-der-wasserkraftanlagen.html
Trempel,,,,"Trempel, Ebnat-Kappel",CH,1.8,Hydro,Run-of-river,,2007,,47.2494883643,9.16366835457,,"Renewable energy",Hydro,,,,https://www.bfe.admin.ch/bfe/de/home/versorgung/statistik-und-geodaten/geoinformation/geodaten/wasser/statistik-der-wasserkraftanlagen.html
"Im Roos",,,,"Ebnat - Kappel",CH,0.86,Hydro,Run-of-river,,2004,,47.2585402791,9.12960201415,,"Renewable energy",Hydro,,,,https://www.bfe.admin.ch/bfe/de/home/versorgung/statistik-und-geodaten/geoinformation/geodaten/wasser/statistik-der-wasserkraftanlagen.html
"Stadtbrücke, Lichtensteig",,,,Lichtensteig,CH,0.57,Hydro,Run-of-river,,2013,,47.3232416909,9.08494859192,,"Renewable energy",Hydro,,,,https://www.bfe.admin.ch/bfe/de/home/versorgung/statistik-und-geodaten/geoinformation/geodaten/wasser/statistik-der-wasserkraftanlagen.html
Dietfurt,,,,Bütschwil,CH,0.98,Hydro,Run-of-river,,2002,,47.3444435336,9.08070597557,,"Renewable energy",Hydro,,,,https://www.bfe.admin.ch/bfe/de/home/versorgung/statistik-und-geodaten/geoinformation/geodaten/wasser/statistik-der-wasserkraftanlagen.html
Soor,,,,Bütschwil,CH,0.98,Hydro,Run-of-river,,2001,,47.3564409783,9.07842778781,,"Renewable energy",Hydro,,,,https://www.bfe.admin.ch/bfe/de/home/versorgung/statistik-und-geodaten/geoinformation/geodaten/wasser/statistik-der-wasserkraftanlagen.html
Mülau,,,,"Mülau bei Bazenheid Kirchberg",CH,1.37,Hydro,Run-of-river,,2010,,47.410872339,9.07811617053,,"Renewable energy",Hydro,,,"- Ersatz alte Zentrale Mülau im Jahr 2010;  ; ",https://www.bfe.admin.ch/bfe/de/home/versorgung/statistik-und-geodaten/geoinformation/geodaten/wasser/statistik-der-wasserkraftanlagen.html
Niederglatt-Gossau,,,,Glattmüli,CH,0.35,Hydro,Run-of-river,,1967,,47.4314001196,9.17553013871,,"Renewable energy",Hydro,,,,https://www.bfe.admin.ch/bfe/de/home/versorgung/statistik-und-geodaten/geoinformation/geodaten/wasser/statistik-der-wasserkraftanlagen.html
Bischofszell,,,,Bischofszell,CH,1.02,Hydro,Run-of-river,,1935,,47.4930279409,9.23422119529,,"Renewable energy",Hydro,,,,https://www.bfe.admin.ch/bfe/de/home/versorgung/statistik-und-geodaten/geoinformation/geodaten/wasser/statistik-der-wasserkraftanlagen.html
"Seealp - Wasserauen",,,,Rässenaueli,CH,2.5,Hydro,Reservoir,,2005,,47.2807040389,9.42116368952,,"Renewable energy",Hydro,,,,https://www.bfe.admin.ch/bfe/de/home/versorgung/statistik-und-geodaten/geoinformation/geodaten/wasser/statistik-der-wasserkraftanlagen.html
Rossfall,,,,Urnäsch,CH,0.38,Hydro,Run-of-river,,1991,,47.2868596876,9.27779379793,,"Renewable energy",Hydro,,,,https://www.bfe.admin.ch/bfe/de/home/versorgung/statistik-und-geodaten/geoinformation/geodaten/wasser/statistik-der-wasserkraftanlagen.html
"EW Zürchersmühle",,,,Urnäsch,CH,0.36,Hydro,Run-of-river,,1987,,47.3318002224,9.29178339624,,"Renewable energy",Hydro,,,"#NAME?; ",https://www.bfe.admin.ch/bfe/de/home/versorgung/statistik-und-geodaten/geoinformation/geodaten/wasser/statistik-der-wasserkraftanlagen.html
Kubel,,,,"St. Gallen",CH,15,Hydro,Run-of-river,,1976,,47.4019094764,9.32364063827,,"Renewable energy",Hydro,,,,https://www.bfe.admin.ch/bfe/de/home/versorgung/statistik-und-geodaten/geoinformation/geodaten/wasser/statistik-der-wasserkraftanlagen.html
Sittertal,,,,"St. Gallen, Sittertal",CH,0.46,Hydro,Run-of-river,,2007,,47.410010524,9.32339732284,,"Renewable energy",Hydro,,,,https://www.bfe.admin.ch/bfe/de/home/versorgung/statistik-und-geodaten/geoinformation/geodaten/wasser/statistik-der-wasserkraftanlagen.html
"Kraftwerk Grafenau",,,,"St. Gallen, Grafenau",CH,0.31,Hydro,Run-of-river,,2018,,,,,"Renewable energy",Hydro,,,,https://www.bfe.admin.ch/bfe/de/home/versorgung/statistik-und-geodaten/geoinformation/geodaten/wasser/statistik-der-wasserkraftanlagen.html
Burentobel,,,,"St. Gallen",CH,0.3,Hydro,Run-of-river,,2008,,47.4191628646,9.34135118586,,"Renewable energy",Hydro,,,,https://www.bfe.admin.ch/bfe/de/home/versorgung/statistik-und-geodaten/geoinformation/geodaten/wasser/statistik-der-wasserkraftanlagen.html
Erlenholz,,,,Wittenbach,CH,0.48,Hydro,Run-of-river,,2003,,47.4572264157,9.36804900144,,"Renewable energy",Hydro,,,,https://www.bfe.admin.ch/bfe/de/home/versorgung/statistik-und-geodaten/geoinformation/geodaten/wasser/statistik-der-wasserkraftanlagen.html
Thurfeld,,,,Schönenberg,CH,1.7,Hydro,Run-of-river,,2011,,47.5192647047,9.20708697249,,"Renewable energy",Hydro,,,,https://www.bfe.admin.ch/bfe/de/home/versorgung/statistik-und-geodaten/geoinformation/geodaten/wasser/statistik-der-wasserkraftanlagen.html
Au-Schönenberg,,,,"Schönenberg an der Thur",CH,2.3,Hydro,Run-of-river,,2002,,47.5239809806,9.18679102533,,"Renewable energy",Hydro,,,,https://www.bfe.admin.ch/bfe/de/home/versorgung/statistik-und-geodaten/geoinformation/geodaten/wasser/statistik-der-wasserkraftanlagen.html
"Bürglen (Säge)",,,,Bürglen,CH,0.44,Hydro,Run-of-river,,2008,,47.547257475,9.15221424841,,"Renewable energy",Hydro,,,,https://www.bfe.admin.ch/bfe/de/home/versorgung/statistik-und-geodaten/geoinformation/geodaten/wasser/statistik-der-wasserkraftanlagen.html
"Kleinwasserkraftwerk Bürglen",,,,Bürglen,CH,0.99,Hydro,Run-of-river,,2016,,,,,"Renewable energy",Hydro,,,,https://www.bfe.admin.ch/bfe/de/home/versorgung/statistik-und-geodaten/geoinformation/geodaten/wasser/statistik-der-wasserkraftanlagen.html
Thur,,,,Bürglen,CH,0.7,Hydro,Run-of-river,,1976,,47.5502758294,9.1427446335,,"Renewable energy",Hydro,,,"- Thur 1 und Thur 2 sind in der Zentrale Thur zusammengefasst.  ; - Rechtsgrundlagen:  Konzessionsablauf Thur 1 = 2036, Konzessionsablauf Thur 2 = 2027.            ;                     	             ; ",https://www.bfe.admin.ch/bfe/de/home/versorgung/statistik-und-geodaten/geoinformation/geodaten/wasser/statistik-der-wasserkraftanlagen.html
"Weinfelden (Model)",,,,Weinfelden,CH,0.4,Hydro,Run-of-river,,1948,,47.5608510601,9.1021506291,,"Renewable energy",Hydro,,,,https://www.bfe.admin.ch/bfe/de/home/versorgung/statistik-und-geodaten/geoinformation/geodaten/wasser/statistik-der-wasserkraftanlagen.html
"Weinfelden (Mühle)",,,,Weinfelden,CH,0.4,Hydro,Run-of-river,,1948,,47.5607188536,9.09882399502,,"Renewable energy",Hydro,,,,https://www.bfe.admin.ch/bfe/de/home/versorgung/statistik-und-geodaten/geoinformation/geodaten/wasser/statistik-der-wasserkraftanlagen.html
Widen,,,,"Weinfelden, untere Widen",CH,0.83,Hydro,Run-of-river,,1989,,47.5647136507,9.07728471582,,"Renewable energy",Hydro,,,,https://www.bfe.admin.ch/bfe/de/home/versorgung/statistik-und-geodaten/geoinformation/geodaten/wasser/statistik-der-wasserkraftanlagen.html
Murkart,,,,Matzingen,CH,0.34,Hydro,Run-of-river,,2008,,47.5374877465,8.91438251912,,"Renewable energy",Hydro,,,,https://www.bfe.admin.ch/bfe/de/home/versorgung/statistik-und-geodaten/geoinformation/geodaten/wasser/statistik-der-wasserkraftanlagen.html
"Schlossmühle, Frauenfeld",,,,"Frauenfeld, Schlossmühlestr.",CH,0.31,Hydro,Run-of-river,,2012,,47.5538872916,8.89796299427,,"Renewable energy",Hydro,,,"#NAME?; ",https://www.bfe.admin.ch/bfe/de/home/versorgung/statistik-und-geodaten/geoinformation/geodaten/wasser/statistik-der-wasserkraftanlagen.html
Kollbrunn,,,,"Kollbrunn, Gmde. Zell",CH,0.37,Hydro,Run-of-river,,2010,,47.4592833018,8.76883185531,,"Renewable energy",Hydro,,,,https://www.bfe.admin.ch/bfe/de/home/versorgung/statistik-und-geodaten/geoinformation/geodaten/wasser/statistik-der-wasserkraftanlagen.html
Sennhof,,,,"Sennhof, Illnau-Effretikon",CH,0.47,Hydro,Run-of-river,,2014,,47.4661750376,8.75613687859,,"Renewable energy",Hydro,,,,https://www.bfe.admin.ch/bfe/de/home/versorgung/statistik-und-geodaten/geoinformation/geodaten/wasser/statistik-der-wasserkraftanlagen.html
Pfungen,,,,Neftenbach,CH,0.35,Hydro,Run-of-river,,1994,,47.5214894015,8.64091948594,,"Renewable energy",Hydro,,,,https://www.bfe.admin.ch/bfe/de/home/versorgung/statistik-und-geodaten/geoinformation/geodaten/wasser/statistik-der-wasserkraftanlagen.html
"Hard Wülflingen",,,,"Hard, Wülflingen in Winterthur",CH,0.58,Hydro,Run-of-river,,2015,,47.5179055877,8.67376758421,,"Renewable energy",Hydro,,,,https://www.bfe.admin.ch/bfe/de/home/versorgung/statistik-und-geodaten/geoinformation/geodaten/wasser/statistik-der-wasserkraftanlagen.html
Freienstein,,,,Freienstein,CH,0.6,Hydro,Run-of-river,,2004,,47.528692361,8.58703091713,,"Renewable energy",Hydro,,,"- Ersatz alte Zentrale Freienstein im Jahr 2004; ",https://www.bfe.admin.ch/bfe/de/home/versorgung/statistik-und-geodaten/geoinformation/geodaten/wasser/statistik-der-wasserkraftanlagen.html
Trümpler,,,,Oberuster,CH,0.42,Hydro,Run-of-river,,2000,,47.3456402562,8.73992340849,,"Renewable energy",Hydro,,,,https://www.bfe.admin.ch/bfe/de/home/versorgung/statistik-und-geodaten/geoinformation/geodaten/wasser/statistik-der-wasserkraftanlagen.html
Eglisau,,,,Zweidlen,CH,46.9,Hydro,Run-of-river,,2012,,47.5749161402,8.47332208664,,"Renewable energy",Hydro,,,,https://www.bfe.admin.ch/bfe/de/home/versorgung/statistik-und-geodaten/geoinformation/geodaten/wasser/statistik-der-wasserkraftanlagen.html
Reckingen,,,,Reckingen,CH,39.5,Hydro,Run-of-river,,2004,,47.5710071549,8.3380806201,,"Renewable energy",Hydro,,,,https://www.bfe.admin.ch/bfe/de/home/versorgung/statistik-und-geodaten/geoinformation/geodaten/wasser/statistik-der-wasserkraftanlagen.html
Wunderklingen,,,,Hallau,CH,0.42,Hydro,Run-of-river,,1968,,47.6978059267,8.4073779118,,"Renewable energy",Hydro,,,,https://www.bfe.admin.ch/bfe/de/home/versorgung/statistik-und-geodaten/geoinformation/geodaten/wasser/statistik-der-wasserkraftanlagen.html
Albbruck-Dogern,,,,Leibstadt,CH,28.4,Hydro,Run-of-river,,2009,,47.58581763,8.13293948536,,"Renewable energy",Hydro,,,,https://www.bfe.admin.ch/bfe/de/home/versorgung/statistik-und-geodaten/geoinformation/geodaten/wasser/statistik-der-wasserkraftanlagen.html
Laufenburg,,,,Laufenburg,CH,110,Hydro,Run-of-river,,1992,,47.5558907696,8.04884507333,,"Renewable energy",Hydro,,,,https://www.bfe.admin.ch/bfe/de/home/versorgung/statistik-und-geodaten/geoinformation/geodaten/wasser/statistik-der-wasserkraftanlagen.html
"Rheinkraftwerk Säckingen",,,,"Bad Säckingen",CH,73.6,Hydro,Run-of-river,,1966,,47.5578674161,7.95679136018,,"Renewable energy",Hydro,,,,https://www.bfe.admin.ch/bfe/de/home/versorgung/statistik-und-geodaten/geoinformation/geodaten/wasser/statistik-der-wasserkraftanlagen.html
Ryburg-Schwörstadt,,,,Schwörstadt,CH,120,Hydro,Run-of-river,,1984,,47.5863232345,7.83343789289,,"Renewable energy",Hydro,,,,https://www.bfe.admin.ch/bfe/de/home/versorgung/statistik-und-geodaten/geoinformation/geodaten/wasser/statistik-der-wasserkraftanlagen.html
"Ryburg-Schwörstadt Lockstromz.",,,,"Schwörstaddt, KW Ryburg-Schw.",CH,0.35,Hydro,Run-of-river,,2014,,47.5874006466,7.83397764783,,"Renewable energy",Hydro,,,,https://www.bfe.admin.ch/bfe/de/home/versorgung/statistik-und-geodaten/geoinformation/geodaten/wasser/statistik-der-wasserkraftanlagen.html
Rheinfelden,,,,Rheinfelden,CH,100,Hydro,Run-of-river,,2010,,47.5688531592,7.8129757269,12W-0000000080-7,"Renewable energy",Hydro,,,"- Ersatz alte Zentrale Rheinfelden im Jahr 2010;  ; ",https://www.bfe.admin.ch/bfe/de/home/versorgung/statistik-und-geodaten/geoinformation/geodaten/wasser/statistik-der-wasserkraftanlagen.html
Rheinfelden-Dotierzentrale,,,,Rheinfelden,CH,1.8,Hydro,Run-of-river,,2011,,47.5688531592,7.8129757269,12W-0000000080-7,"Renewable energy",Hydro,,,,https://www.bfe.admin.ch/bfe/de/home/versorgung/statistik-und-geodaten/geoinformation/geodaten/wasser/statistik-der-wasserkraftanlagen.html
Augst,,,,Augst,CH,35,Hydro,Run-of-river,,1994,,47.5367624123,7.70968848078,,"Renewable energy",Hydro,,,,https://www.bfe.admin.ch/bfe/de/home/versorgung/statistik-und-geodaten/geoinformation/geodaten/wasser/statistik-der-wasserkraftanlagen.html
Wyhlen,,,,Grenzach-Wyhlen,CH,38.5,Hydro,Run-of-river,,1994,,47.5387456625,7.70770633233,,"Renewable energy",Hydro,,,,https://www.bfe.admin.ch/bfe/de/home/versorgung/statistik-und-geodaten/geoinformation/geodaten/wasser/statistik-der-wasserkraftanlagen.html
Birsfelden,,,,Birsfelden,CH,100,Hydro,Run-of-river,,1999,,47.5598609367,7.62636460556,,"Renewable energy",Hydro,,,,https://www.bfe.admin.ch/bfe/de/home/versorgung/statistik-und-geodaten/geoinformation/geodaten/wasser/statistik-der-wasserkraftanlagen.html
Moutier,,,,"Gorges de Court",CH,0.92,Hydro,Run-of-river,,1979,,47.2656875543,7.34903942074,,"Renewable energy",Hydro,,,,https://www.bfe.admin.ch/bfe/de/home/versorgung/statistik-und-geodaten/geoinformation/geodaten/wasser/statistik-der-wasserkraftanlagen.html
Choindez,,,,Choindez,CH,0.58,Hydro,Run-of-river,,2003,,47.3222821543,7.37844081384,,"Renewable energy",Hydro,,,,https://www.bfe.admin.ch/bfe/de/home/versorgung/statistik-und-geodaten/geoinformation/geodaten/wasser/statistik-der-wasserkraftanlagen.html
"Blanches-Fontaines Undervelier",,,,"Undervelier, Blanches-Fontaine",CH,0.32,Hydro,Run-of-river,,2001,,47.2948384497,7.22127698932,,"Renewable energy",Hydro,,,,https://www.bfe.admin.ch/bfe/de/home/versorgung/statistik-und-geodaten/geoinformation/geodaten/wasser/statistik-der-wasserkraftanlagen.html
Bassecourt,,,,"Chez Theurillat, Haute-Sorne",CH,1.03,Hydro,Run-of-river,,2001,,47.331015929,7.23197724871,,"Renewable energy",Hydro,,,,https://www.bfe.admin.ch/bfe/de/home/versorgung/statistik-und-geodaten/geoinformation/geodaten/wasser/statistik-der-wasserkraftanlagen.html
Bellerive,,,,Soyhières,CH,0.52,Hydro,Run-of-river,,2002,,47.3828021223,7.35916951758,,"Renewable energy",Hydro,,,,https://www.bfe.admin.ch/bfe/de/home/versorgung/statistik-und-geodaten/geoinformation/geodaten/wasser/statistik-der-wasserkraftanlagen.html
Juramill,,,,Laufen,CH,0.35,Hydro,Run-of-river,,1997,,47.4105191351,7.49467015206,,"Renewable energy",Hydro,,,,https://www.bfe.admin.ch/bfe/de/home/versorgung/statistik-und-geodaten/geoinformation/geodaten/wasser/statistik-der-wasserkraftanlagen.html
"Laufen (Wasserfall)",,,,Laufen,CH,0.72,Hydro,Run-of-river,,1995,,47.4196898837,7.50117302601,,"Renewable energy",Hydro,,,,https://www.bfe.admin.ch/bfe/de/home/versorgung/statistik-und-geodaten/geoinformation/geodaten/wasser/statistik-der-wasserkraftanlagen.html
"Zwingen, Obermatt",,,,Zwingen,CH,0.38,Hydro,Run-of-river,,2005,,47.4364944597,7.52399277792,,"Renewable energy",Hydro,,,"#NAME?; ",https://www.bfe.admin.ch/bfe/de/home/versorgung/statistik-und-geodaten/geoinformation/geodaten/wasser/statistik-der-wasserkraftanlagen.html
Nenzlingen,,,,Nenzlingen,CH,0.34,Hydro,Run-of-river,,1997,,47.4438497021,7.5478685338,,"Renewable energy",Hydro,,,,https://www.bfe.admin.ch/bfe/de/home/versorgung/statistik-und-geodaten/geoinformation/geodaten/wasser/statistik-der-wasserkraftanlagen.html
Moos,,,,Grellingen,CH,0.98,Hydro,Run-of-river,,1999,,47.4387770608,7.58113219065,,"Renewable energy",Hydro,,,,https://www.bfe.admin.ch/bfe/de/home/versorgung/statistik-und-geodaten/geoinformation/geodaten/wasser/statistik-der-wasserkraftanlagen.html
"Büttenen 2",,,,Grellingen,CH,0.5,Hydro,Run-of-river,,2000,,47.4428086273,7.59347246718,,"Renewable energy",Hydro,,,"- Nutzungsdauer:  Bezogen auf die Ausbauwassermenge von 13.0 m3/s (Zentralen Büttenen 1 und Büttenen 2);                        ; ",https://www.bfe.admin.ch/bfe/de/home/versorgung/statistik-und-geodaten/geoinformation/geodaten/wasser/statistik-der-wasserkraftanlagen.html
"Büttenen 1",,,,Grellingen,CH,0.55,Hydro,Run-of-river,,1999,,47.4428086273,7.59347246718,,"Renewable energy",Hydro,,,"- Nutzungsdauer:  Bezogen auf die Ausbauwassermenge von 13.0 m3/s (Zentralen Büttenen 1 und Büttenen 2);                         ; ",https://www.bfe.admin.ch/bfe/de/home/versorgung/statistik-und-geodaten/geoinformation/geodaten/wasser/statistik-der-wasserkraftanlagen.html
Dornachbrugg,,,,Dornach,CH,1.54,Hydro,Run-of-river,,1996,,47.4890184953,7.60740615434,,"Renewable energy",Hydro,,,,https://www.bfe.admin.ch/bfe/de/home/versorgung/statistik-und-geodaten/geoinformation/geodaten/wasser/statistik-der-wasserkraftanlagen.html
Neuewelt,,,,Münchenstein,CH,1.07,Hydro,Run-of-river,,1998,,47.5257818674,7.62173011689,,"Renewable energy",Hydro,,,,https://www.bfe.admin.ch/bfe/de/home/versorgung/statistik-und-geodaten/geoinformation/geodaten/wasser/statistik-der-wasserkraftanlagen.html
"Am. de dotation du Kembs 1",,,,"Barrage de Kembs",CH,2.85,Hydro,Run-of-river,,1966,,47.6194755433,7.57030818507,,"Renewable energy",Hydro,,,,https://www.bfe.admin.ch/bfe/de/home/versorgung/statistik-und-geodaten/geoinformation/geodaten/wasser/statistik-der-wasserkraftanlagen.html
"Am. de dotation du Kembs 2",,,,"Barrage de Kembs",CH,8.4,Hydro,Run-of-river,,2016,,,,,"Renewable energy",Hydro,,,,https://www.bfe.admin.ch/bfe/de/home/versorgung/statistik-und-geodaten/geoinformation/geodaten/wasser/statistik-der-wasserkraftanlagen.html
Kembs,,,,"Kembs, Loechle",CH,155,Hydro,Run-of-river,,1983,,47.6549559529,7.51941590623,,"Renewable energy",Hydro,,,,https://www.bfe.admin.ch/bfe/de/home/versorgung/statistik-und-geodaten/geoinformation/geodaten/wasser/statistik-der-wasserkraftanlagen.html
"Grimsel 2",,,,"Grimsel, Chessituren",CH,388,Hydro,"Pumped storage with natural inflow",,1981,,46.5680720667,8.31932651704,12W-0000000031-O,"Renewable energy",Hydro,,,"- Zentrale Grimsel 2 praktiziert Umwälzbetrieb            ; ",https://www.bfe.admin.ch/bfe/de/home/versorgung/statistik-und-geodaten/geoinformation/geodaten/wasser/statistik-der-wasserkraftanlagen.html
"KW Grimsel Nollen",,,,"Guttannen, Spitelnollen",CH,1.1,Hydro,Run-of-river,,2017,,,,,"Renewable energy",Hydro,,,,https://www.bfe.admin.ch/bfe/de/home/versorgung/statistik-und-geodaten/geoinformation/geodaten/wasser/statistik-der-wasserkraftanlagen.html
"Grimsel 1-Oberaarsee",,,,"Grimsel, Sommerloch u.Hospiz",CH,33.6,Hydro,Reservoir,,2006,,46.5753380766,8.33353407357,12W-0000000031-O,"Renewable energy",Hydro,,,"- Zentralen Grimsel 1 (Oberaarsee) und Grimsel 1 (Grimselsee) in einer Kaverne;     ;                                                    ; ",https://www.bfe.admin.ch/bfe/de/home/versorgung/statistik-und-geodaten/geoinformation/geodaten/wasser/statistik-der-wasserkraftanlagen.html
"Grimsel 1-Grimselsee",,,,"Grimsel, Sommerloch, u.Hospiz",CH,32.2,Hydro,Reservoir,,2007,,46.5753380766,8.33353407357,12W-0000000031-O,"Renewable energy",Hydro,,,"- Zentralen Grimsel 1 (Oberaarsee) und Grimsel 1 (Grimselsee) in einer Kaverne;    ;                                                    ; ",https://www.bfe.admin.ch/bfe/de/home/versorgung/statistik-und-geodaten/geoinformation/geodaten/wasser/statistik-der-wasserkraftanlagen.html
"Handeck 1",,,,Handegg,CH,44.8,Hydro,Reservoir,,1932,,46.6168313032,8.30758712831,12W-0000000031-O,"Renewable energy",Hydro,,,,https://www.bfe.admin.ch/bfe/de/home/versorgung/statistik-und-geodaten/geoinformation/geodaten/wasser/statistik-der-wasserkraftanlagen.html
"Handeck 2",,,,Handegg,CH,215.6,Hydro,Reservoir,,1958,,,,,"Renewable energy",Hydro,,,,https://www.bfe.admin.ch/bfe/de/home/versorgung/statistik-und-geodaten/geoinformation/geodaten/wasser/statistik-der-wasserkraftanlagen.html
"Handeck 3 - Isogyre",,,,Handegg,CH,55.1,Hydro,"Pumped storage",,1976,,46.6156957263,8.30313005616,12W-0000000031-O,"Renewable energy",Hydro,,,"- Zentrale Handeck 3: Pumpen-Turbinenbetrieb mit Isogyre-Maschine     ;   a) 	Im Turbinenbetrieb: Die Isogyre turbiniert das Wasser aus dem Räterichsbodensee. Dieses wird über das Ausgleichsbecken Handeck; 	entweder zur Zentrale Innertkirchen 1 oder über die Reservoirkammern Trift zur Zentrale Hopflauenen (Trift) geleitet ;   b) 	Im Pumpbetrieb: Die Isogyre pumpt das Wasser aus den Reservoirkammern Trift und/oder aus dem Ausgleichsbecken Handeck; 	in den Räterichsbodensee ; - Zentralen Handeck 3 (Isogyre) und Handeck 3 (Pumpzentrale) in einer Kaverne;                    ;       ;                                                     ;          ",https://www.bfe.admin.ch/bfe/de/home/versorgung/statistik-und-geodaten/geoinformation/geodaten/wasser/statistik-der-wasserkraftanlagen.html
"Kraftwerk Hostetbach AG",,,,"Guttannen, Blatti",CH,1.29,Hydro,Run-of-river,,2016,,,,,"Renewable energy",Hydro,,,,https://www.bfe.admin.ch/bfe/de/home/versorgung/statistik-und-geodaten/geoinformation/geodaten/wasser/statistik-der-wasserkraftanlagen.html
"Innertkirchen 3",,,,"Innertkirchen, Underürbach",CH,2.95,Hydro,Run-of-river,,2016,,,,,"Renewable energy",Hydro,,,,https://www.bfe.admin.ch/bfe/de/home/versorgung/statistik-und-geodaten/geoinformation/geodaten/wasser/statistik-der-wasserkraftanlagen.html
"Innertkirchen 1",,,,Innertkirchen,CH,393.5,Hydro,Reservoir,,2007,,,,,"Renewable energy",Hydro,,,,https://www.bfe.admin.ch/bfe/de/home/versorgung/statistik-und-geodaten/geoinformation/geodaten/wasser/statistik-der-wasserkraftanlagen.html
Gental,,,,"Underi-Furen, Innertkirchen",CH,9.6,Hydro,Reservoir,,1961,,46.7271910884,8.33369724917,12W-0000000031-O,"Renewable energy",Hydro,,,"#NAME?; ",https://www.bfe.admin.ch/bfe/de/home/versorgung/statistik-und-geodaten/geoinformation/geodaten/wasser/statistik-der-wasserkraftanlagen.html
Gental,,,,"Underi-Furen, Innertkirchen",CH,0,Hydro,Reservoir,,1961,,46.7271910884,8.33369724917,12W-0000000031-O,"Renewable energy",Hydro,,,"#NAME?; #NAME?;                                                         ;   ; ",https://www.bfe.admin.ch/bfe/de/home/versorgung/statistik-und-geodaten/geoinformation/geodaten/wasser/statistik-der-wasserkraftanlagen.html
Hopflauenen-Trift,,,,Hopflauenen,CH,81.6,Hydro,Reservoir,,1974,,46.715113414,8.27751698219,12W-0000000031-O,"Renewable energy",Hydro,,,"#NAME?;   a) Laufkraftwerkbetrieb:  Sommer, dh. Zufluss zur Reservoirkammer Trift gleich oder  grösser 14 m3/s                                      ;   b) Lauf- und Speicherkraftwerkbetrieb gemischt:  Frühling/Herbst, dh. natürlicher Zufluss zur Reservoirkammer Trift = 2 - 14 m3/s,    ;                                                			  Rest bis 21 m3/s Speicherwasser ab Zentrale Handeck 3 (Isogyre);   c) Speicherkraftwerkbetrieb: Winter, dh. Speicherwasser ab Zentrale Handeck 3 (Isogyre); #NAME?;       ;      ;                                          ;                                    ",https://www.bfe.admin.ch/bfe/de/home/versorgung/statistik-und-geodaten/geoinformation/geodaten/wasser/statistik-der-wasserkraftanlagen.html
Hopflauenen-Leimboden,,,,Hopflauenen,CH,5.4,Hydro,Run-of-river,,1967,,46.715113414,8.27751698219,12W-0000000031-O,"Renewable energy",Hydro,,,"#NAME?;                                                 ; ",https://www.bfe.admin.ch/bfe/de/home/versorgung/statistik-und-geodaten/geoinformation/geodaten/wasser/statistik-der-wasserkraftanlagen.html
"Innertkirchen 2",,,,Innertkirchen,CH,54.8,Hydro,Reservoir,,1974,,46.7085534816,8.22601948865,12W-0000000031-O,"Renewable energy",Hydro,,,"#NAME?;   a) Laufkraftwerkbetrieb im Sommer;   b) Lauf- und Speicherkraftwerkbetrieb gemischt im Frühling und im Herbst;   c) Speicherkraftwerkbetrieb im Winter ;  ; ",https://www.bfe.admin.ch/bfe/de/home/versorgung/statistik-und-geodaten/geoinformation/geodaten/wasser/statistik-der-wasserkraftanlagen.html
"Meiringen 2",,,,"Meiringen, Haselholz",CH,1.65,Hydro,Run-of-river,,1950,,46.7317817542,8.19665922545,,"Renewable energy",Hydro,,,"#NAME?; ",https://www.bfe.admin.ch/bfe/de/home/versorgung/statistik-und-geodaten/geoinformation/geodaten/wasser/statistik-der-wasserkraftanlagen.html
"Meiringen 1",,,,Meiringen,CH,1,Hydro,Run-of-river,,1946,,46.7287537496,8.19203780743,,"Renewable energy",Hydro,,,"#NAME?; ",https://www.bfe.admin.ch/bfe/de/home/versorgung/statistik-und-geodaten/geoinformation/geodaten/wasser/statistik-der-wasserkraftanlagen.html
"Schattenhalb 1+",,,,Schattenhalb,CH,2.3,Hydro,Run-of-river,,2017,,,,,"Renewable energy",Hydro,,,"- Schattenhalb 1 wurde ertsmals 1907 in Betrieb genommen; ",https://www.bfe.admin.ch/bfe/de/home/versorgung/statistik-und-geodaten/geoinformation/geodaten/wasser/statistik-der-wasserkraftanlagen.html
"Schattenhalb 3",,,,Schattenhalb,CH,9.7,Hydro,Run-of-river,,2010,,46.7194470022,8.18458296836,,"Renewable energy",Hydro,,,,https://www.bfe.admin.ch/bfe/de/home/versorgung/statistik-und-geodaten/geoinformation/geodaten/wasser/statistik-der-wasserkraftanlagen.html
Giessbach,,,,Brienz,CH,0.9,Hydro,Run-of-river,,2005,,46.7344427309,8.01888764388,,"Renewable energy",Hydro,,,,https://www.bfe.admin.ch/bfe/de/home/versorgung/statistik-und-geodaten/geoinformation/geodaten/wasser/statistik-der-wasserkraftanlagen.html
Grindelwald,,,,Grindelwald,CH,1.4,Hydro,Reservoir,,1960,,46.6264198282,8.05024233615,,"Renewable energy",Hydro,,,,https://www.bfe.admin.ch/bfe/de/home/versorgung/statistik-und-geodaten/geoinformation/geodaten/wasser/statistik-der-wasserkraftanlagen.html
Burglauenen-Lütschental,,,,Lütschental,CH,11.9,Hydro,Run-of-river,,2011,,46.6373283443,7.95450426806,,"Renewable energy",Hydro,,,,https://www.bfe.admin.ch/bfe/de/home/versorgung/statistik-und-geodaten/geoinformation/geodaten/wasser/statistik-der-wasserkraftanlagen.html
Stechelberg,,,,"Lauterbrunnen, Stechelberg",CH,4.3,Hydro,Run-of-river,,1979,,46.544726438,7.89990747896,,"Renewable energy",Hydro,,,,https://www.bfe.admin.ch/bfe/de/home/versorgung/statistik-und-geodaten/geoinformation/geodaten/wasser/statistik-der-wasserkraftanlagen.html
Saxettal-Geissbrunnen,,,,Saxeten,CH,0.48,Hydro,Run-of-river,,1999,,46.6283781404,7.82997757095,,"Renewable energy",Hydro,,,"#NAME?; ",https://www.bfe.admin.ch/bfe/de/home/versorgung/statistik-und-geodaten/geoinformation/geodaten/wasser/statistik-der-wasserkraftanlagen.html
Saxettal-Kammri,,,,Wilderswil,CH,0.8,Hydro,Run-of-river,,1998,,46.65762105,7.853444546,,"Renewable energy",Hydro,,,"#NAME?; ",https://www.bfe.admin.ch/bfe/de/home/versorgung/statistik-und-geodaten/geoinformation/geodaten/wasser/statistik-der-wasserkraftanlagen.html
Interlaken,,,,"Interlaken, Kanal",CH,0.82,Hydro,Run-of-river,,1932,,46.6826409841,7.85010729942,,"Renewable energy",Hydro,,,,https://www.bfe.admin.ch/bfe/de/home/versorgung/statistik-und-geodaten/geoinformation/geodaten/wasser/statistik-der-wasserkraftanlagen.html
Interlaken,,,,Unterseen,CH,0.3,Hydro,Run-of-river,,1996,,46.6826409841,7.85010729942,,"Renewable energy",Hydro,,,,https://www.bfe.admin.ch/bfe/de/home/versorgung/statistik-und-geodaten/geoinformation/geodaten/wasser/statistik-der-wasserkraftanlagen.html
"Kandersteg (Eggeschwand)",,,,"Kandersteg, Eggeschwand",CH,2.1,Hydro,Run-of-river,,2009,,46.4750989753,7.66012339529,,"Renewable energy",Hydro,,,,https://www.bfe.admin.ch/bfe/de/home/versorgung/statistik-und-geodaten/geoinformation/geodaten/wasser/statistik-der-wasserkraftanlagen.html
"Kandersteg (Zilfuri)",,,,"Kandersteg, Zilfuri",CH,1.09,Hydro,Run-of-river,,1958,,46.4956334904,7.69159893354,,"Renewable energy",Hydro,,,"#NAME?; ",https://www.bfe.admin.ch/bfe/de/home/versorgung/statistik-und-geodaten/geoinformation/geodaten/wasser/statistik-der-wasserkraftanlagen.html
"Kandersteg (Dorf)",,,,"Kandersteg, Dorf",CH,1.03,Hydro,Run-of-river,,2012,,46.4959386063,7.67518789714,,"Renewable energy",Hydro,,,,https://www.bfe.admin.ch/bfe/de/home/versorgung/statistik-und-geodaten/geoinformation/geodaten/wasser/statistik-der-wasserkraftanlagen.html
Kandergrund,,,,Inner-Kandergrund,CH,19,Hydro,Run-of-river,,1991,,46.5427473984,7.65948659951,12W-0000000031-O,"Renewable energy",Hydro,,,,https://www.bfe.admin.ch/bfe/de/home/versorgung/statistik-und-geodaten/geoinformation/geodaten/wasser/statistik-der-wasserkraftanlagen.html
Engstligenalp,,,,"Adelboden, Engstligenalp",CH,0.6,Hydro,Run-of-river,,2011,,46.4491601982,7.56175847554,,"Renewable energy",Hydro,,,,https://www.bfe.admin.ch/bfe/de/home/versorgung/statistik-und-geodaten/geoinformation/geodaten/wasser/statistik-der-wasserkraftanlagen.html
"WKA Spiggenbach Reichenbach",,,,"Reichenbach, Losplatte",CH,2.75,Hydro,Run-of-river,,2017,,,,,"Renewable energy",Hydro,,,,https://www.bfe.admin.ch/bfe/de/home/versorgung/statistik-und-geodaten/geoinformation/geodaten/wasser/statistik-der-wasserkraftanlagen.html
Moosweid,,,,"Adelboden, Moosweid",CH,0.35,Hydro,Run-of-river,,2014,,46.4961001155,7.57684401786,,"Renewable energy",Hydro,,,,https://www.bfe.admin.ch/bfe/de/home/versorgung/statistik-und-geodaten/geoinformation/geodaten/wasser/statistik-der-wasserkraftanlagen.html
Engstlige,,,,Adelboden,CH,0.9,Hydro,Run-of-river,,1996,,46.5068875836,7.58273413036,,"Renewable energy",Hydro,,,,https://www.bfe.admin.ch/bfe/de/home/versorgung/statistik-und-geodaten/geoinformation/geodaten/wasser/statistik-der-wasserkraftanlagen.html
Spiez,,,,"Längmad am Thunersee",CH,18.66,Hydro,Run-of-river,,1986,,46.6966510403,7.6649514724,,"Renewable energy",Hydro,,,"- Ausbauwassermenge:	Bezogen auf die Zuleitungskapazität ab Weiher Spiezmoos       ; - Nutzungsdauer: 		Bezogen auf die Zuleitungskapazität ab Simme- und Kanderwehr bis Weiher Spiezmoos;                                              ;         			12 m3/s + 14 m3/s = 26 m3/s;                          ;                               ; ",https://www.bfe.admin.ch/bfe/de/home/versorgung/statistik-und-geodaten/geoinformation/geodaten/wasser/statistik-der-wasserkraftanlagen.html
"Färmelbach, St. Stephan",,,,"St. Stephan, Matten",CH,2.09,Hydro,Run-of-river,,2016,,,,,"Renewable energy",Hydro,,,,https://www.bfe.admin.ch/bfe/de/home/versorgung/statistik-und-geodaten/geoinformation/geodaten/wasser/statistik-der-wasserkraftanlagen.html
"KW Simelemoos",,,,"St. Stephan",CH,0.35,Hydro,Run-of-river,,2016,,,,,"Renewable energy",Hydro,,,,https://www.bfe.admin.ch/bfe/de/home/versorgung/statistik-und-geodaten/geoinformation/geodaten/wasser/statistik-der-wasserkraftanlagen.html
"Laubegg (Garstatt)",,,,"Boltigen, Garstatt",CH,2.6,Hydro,Run-of-river,,2016,,,,,"Renewable energy",Hydro,,,,https://www.bfe.admin.ch/bfe/de/home/versorgung/statistik-und-geodaten/geoinformation/geodaten/wasser/statistik-der-wasserkraftanlagen.html
"Berner Green Power GmbH",,,,Weissenburg,CH,0.37,Hydro,Run-of-river,,1999,,46.6669162637,7.46411851171,,"Renewable energy",Hydro,,,,https://www.bfe.admin.ch/bfe/de/home/versorgung/statistik-und-geodaten/geoinformation/geodaten/wasser/statistik-der-wasserkraftanlagen.html
Klusi,,,,Erlenbach,CH,1.3,Hydro,Reservoir,,1996,,46.6638985262,7.54826368379,,"Renewable energy",Hydro,,,"#NAME?; - Ersatz alte Zentrale Klusi im Jahr 1996                                        ; ",https://www.bfe.admin.ch/bfe/de/home/versorgung/statistik-und-geodaten/geoinformation/geodaten/wasser/statistik-der-wasserkraftanlagen.html
Erlenbach,,,,Erlenbach,CH,18,Hydro,Run-of-river,,2005,,46.6568821564,7.54811891222,,"Renewable energy",Hydro,,,,https://www.bfe.admin.ch/bfe/de/home/versorgung/statistik-und-geodaten/geoinformation/geodaten/wasser/statistik-der-wasserkraftanlagen.html
Simmenfluh,,,,"Simmenfluh (Wimmis)",CH,9,Hydro,Run-of-river,,2000,,46.6727987868,7.62264084059,,"Renewable energy",Hydro,,,,https://www.bfe.admin.ch/bfe/de/home/versorgung/statistik-und-geodaten/geoinformation/geodaten/wasser/statistik-der-wasserkraftanlagen.html
"AAREwerk 62 Thun",,,,Thun,CH,6.32,Hydro,Run-of-river,,1962,,46.7616886927,7.61338717639,,"Renewable energy",Hydro,,,,https://www.bfe.admin.ch/bfe/de/home/versorgung/statistik-und-geodaten/geoinformation/geodaten/wasser/statistik-der-wasserkraftanlagen.html
"AAREwerk 94 Thun",,,,Thun,CH,2.83,Hydro,Run-of-river,,1994,,46.7616779127,7.62032482826,,"Renewable energy",Hydro,,,"- Ersatz Zentrale Thun-Aare 1917 am Gewerbekanal im Jahr 1994                                ; ",https://www.bfe.admin.ch/bfe/de/home/versorgung/statistik-und-geodaten/geoinformation/geodaten/wasser/statistik-der-wasserkraftanlagen.html
"Thun (Eidg.)",,,,"Thun, Kanal (Uttigenstr.)",CH,0.44,Hydro,Run-of-river,,1937,,46.761596737,7.61469587515,,"Renewable energy",Hydro,,,,https://www.bfe.admin.ch/bfe/de/home/versorgung/statistik-und-geodaten/geoinformation/geodaten/wasser/statistik-der-wasserkraftanlagen.html
Blumenstein,,,,Blumenstein,CH,0.64,Hydro,Run-of-river,,1990,,46.727704518,7.51333335379,,"Renewable energy",Hydro,,,"#NAME?; ",https://www.bfe.admin.ch/bfe/de/home/versorgung/statistik-und-geodaten/geoinformation/geodaten/wasser/statistik-der-wasserkraftanlagen.html
Matte,,,,"Bern, Matte",CH,1.16,Hydro,Run-of-river,,1986,,46.9464934587,7.45675932783,,"Renewable energy",Hydro,,,,https://www.bfe.admin.ch/bfe/de/home/versorgung/statistik-und-geodaten/geoinformation/geodaten/wasser/statistik-der-wasserkraftanlagen.html
Felsenau,,,,Engehalde,CH,0.44,Hydro,Run-of-river,,1998,,46.9684429408,7.43942106448,,"Renewable energy",Hydro,,,,https://www.bfe.admin.ch/bfe/de/home/versorgung/statistik-und-geodaten/geoinformation/geodaten/wasser/statistik-der-wasserkraftanlagen.html
Felsenau,,,,Felsenau,CH,11.5,Hydro,Run-of-river,,1989,,46.9684429408,7.43942106448,,"Renewable energy",Hydro,,,,https://www.bfe.admin.ch/bfe/de/home/versorgung/statistik-und-geodaten/geoinformation/geodaten/wasser/statistik-der-wasserkraftanlagen.html
Mühleberg,,,,Buttenried,CH,44.59,Hydro,Run-of-river,,1965,,46.9691475017,7.28449397374,,"Renewable energy",Hydro,,,,https://www.bfe.admin.ch/bfe/de/home/versorgung/statistik-und-geodaten/geoinformation/geodaten/wasser/statistik-der-wasserkraftanlagen.html
Sanetsch,,,,Innergsteig,CH,18,Hydro,Reservoir,,1966,,46.3764261319,7.27799985349,,"Renewable energy",Hydro,,,,https://www.bfe.admin.ch/bfe/de/home/versorgung/statistik-und-geodaten/geoinformation/geodaten/wasser/statistik-der-wasserkraftanlagen.html
"Lauenen (Louibach)",,,,"Lauenen bei Gstaad",CH,0.9,Hydro,Run-of-river,,2014,,46.4241533318,7.31831395313,,"Renewable energy",Hydro,,,,https://www.bfe.admin.ch/bfe/de/home/versorgung/statistik-und-geodaten/geoinformation/geodaten/wasser/statistik-der-wasserkraftanlagen.html
Gsteig,,,,"Gsteig b.Gstaad",CH,0.72,Hydro,Run-of-river,,2015,,46.3852280895,7.26861425605,,"Renewable energy",Hydro,,,,https://www.bfe.admin.ch/bfe/de/home/versorgung/statistik-und-geodaten/geoinformation/geodaten/wasser/statistik-der-wasserkraftanlagen.html
"Gérignoz - La Pontia",,,,"Château d'Oex, Gérignoz",CH,0.45,Hydro,Run-of-river,,1996,,46.4732724541,7.165215604,,"Renewable energy",Hydro,,,,https://www.bfe.admin.ch/bfe/de/home/versorgung/statistik-und-geodaten/geoinformation/geodaten/wasser/statistik-der-wasserkraftanlagen.html
Montbovon,,,,Montbovon,CH,31,Hydro,Run-of-river,,1972,,46.4879524618,7.04831690495,,"Renewable energy",Hydro,,,,https://www.bfe.admin.ch/bfe/de/home/versorgung/statistik-und-geodaten/geoinformation/geodaten/wasser/statistik-der-wasserkraftanlagen.html
Lessoc,,,,Lessoc,CH,8.56,Hydro,Run-of-river,,1973,,46.5060508043,7.05326712822,,"Renewable energy",Hydro,,,,https://www.bfe.admin.ch/bfe/de/home/versorgung/statistik-und-geodaten/geoinformation/geodaten/wasser/statistik-der-wasserkraftanlagen.html
"Sainte - Anne",,,,Grandvillard,CH,2.9,Hydro,Run-of-river,,1999,,46.5351297566,7.08799404019,,"Renewable energy",Hydro,,,,https://www.bfe.admin.ch/bfe/de/home/versorgung/statistik-und-geodaten/geoinformation/geodaten/wasser/statistik-der-wasserkraftanlagen.html
Jaun,,,,Jaun,CH,0.38,Hydro,Run-of-river,,1982,,46.6085004996,7.26934360331,,"Renewable energy",Hydro,,,,https://www.bfe.admin.ch/bfe/de/home/versorgung/statistik-und-geodaten/geoinformation/geodaten/wasser/statistik-der-wasserkraftanlagen.html
"Charmey (La Tzintre)",,,,"Charmey, La Tzintre",CH,0.86,Hydro,Run-of-river,,2012,,46.6118329212,7.17691300027,,"Renewable energy",Hydro,,,,https://www.bfe.admin.ch/bfe/de/home/versorgung/statistik-und-geodaten/geoinformation/geodaten/wasser/statistik-der-wasserkraftanlagen.html
"Charmey (La Perré)",,,,"Charmey, Le Perré",CH,5.27,Hydro,Run-of-river,,1982,,46.6145855566,7.16175653751,,"Renewable energy",Hydro,,,,https://www.bfe.admin.ch/bfe/de/home/versorgung/statistik-und-geodaten/geoinformation/geodaten/wasser/statistik-der-wasserkraftanlagen.html
Broc,,,,Broc,CH,25,Hydro,Run-of-river,,1988,,46.6098576224,7.10930675272,,"Renewable energy",Hydro,,,,https://www.bfe.admin.ch/bfe/de/home/versorgung/statistik-und-geodaten/geoinformation/geodaten/wasser/statistik-der-wasserkraftanlagen.html
"Am.de dotation d'Hauterive 1",,,,Rossens,CH,0.7,Hydro,Run-of-river,,1976,,46.7179036853,7.1124380045,,"Renewable energy",Hydro,,,"- La centrale est hors fonction pendant l'hiver; ",https://www.bfe.admin.ch/bfe/de/home/versorgung/statistik-und-geodaten/geoinformation/geodaten/wasser/statistik-der-wasserkraftanlagen.html
"Am. de dotation d'Hauterive 2",,,,Rossens,CH,1.7,Hydro,Run-of-river,,2005,,46.7179036853,7.1124380045,,"Renewable energy",Hydro,,,,https://www.bfe.admin.ch/bfe/de/home/versorgung/statistik-und-geodaten/geoinformation/geodaten/wasser/statistik-der-wasserkraftanlagen.html
Hauterive,,,,Hauterive,CH,60,Hydro,Reservoir,,1948,,46.7689506687,7.1275763544,,"Renewable energy",Hydro,,,,https://www.bfe.admin.ch/bfe/de/home/versorgung/statistik-und-geodaten/geoinformation/geodaten/wasser/statistik-der-wasserkraftanlagen.html
"Am.de dotation d'Oelberg",,,,"Fribourg, Maigrauge",CH,0.58,Hydro,Run-of-river,,1952,,46.7987340488,7.16591494327,,"Renewable energy",Hydro,,,,https://www.bfe.admin.ch/bfe/de/home/versorgung/statistik-und-geodaten/geoinformation/geodaten/wasser/statistik-der-wasserkraftanlagen.html
Oelberg,,,,"Fribourg, Oelberg",CH,18.3,Hydro,Reservoir,,1980,,46.8017059504,7.1673408094,,"Renewable energy",Hydro,,,,https://www.bfe.admin.ch/bfe/de/home/versorgung/statistik-und-geodaten/geoinformation/geodaten/wasser/statistik-der-wasserkraftanlagen.html
Schiffenen,,,,Schiffenen,CH,71,Hydro,Reservoir,,1964,,46.8827252047,7.19421903622,,"Renewable energy",Hydro,,,,https://www.bfe.admin.ch/bfe/de/home/versorgung/statistik-und-geodaten/geoinformation/geodaten/wasser/statistik-der-wasserkraftanlagen.html
Niederried,,,,"Niederried, Radelfingen",CH,15,Hydro,Run-of-river,,1992,,47.0031721765,7.24113567118,,"Renewable energy",Hydro,,,"- Nutzungsdauer: 	Bezogen auf die Ausbauwassermenge von 215 m3/s  (Zentralen Niederried und Kallnach); - Ersatzenergie: 	Siehe Zentrale Aarberg                            ;                          ; ",https://www.bfe.admin.ch/bfe/de/home/versorgung/statistik-und-geodaten/geoinformation/geodaten/wasser/statistik-der-wasserkraftanlagen.html
Aarberg,,,,Aarberg,CH,15.2,Hydro,Run-of-river,,1994,,47.0378523989,7.27192721071,,"Renewable energy",Hydro,,,"- Nutzungsdauer: 	Bezogen auf die Ausbauwassermenge von 215 m3/s (Zentralen Niederried, Aarberg und Kallnach); - Ersatzenergie: 	Die Angabe bezieht sich auf die Zentralen Niederried, Aarberg, Kallnach und Hagneck. Einzelwerte ;                      	der Zentralen nicht bekannt ; Das Dotierkraftwerk Aaberg erzeugt mit 210 kW Leistung und 3.5 m3/s Wasserdurchsatz eine Jahresproduktion von 1.5 GWh;; diese wird dem KW Aarberg zugerechnet. Mit einer Erneuerung des Dotierkraftwekes wird die 300 kW Leistung erreicht und; wird somit als eigene Anlage in der WASTA aufgenommen.;                   ;  ;                          	; ",https://www.bfe.admin.ch/bfe/de/home/versorgung/statistik-und-geodaten/geoinformation/geodaten/wasser/statistik-der-wasserkraftanlagen.html
Kallnach,,,,Kallnach,CH,8.3,Hydro,Run-of-river,,1980,,47.0214990152,7.22817749023,,"Renewable energy",Hydro,,,"- Die konzedierte Ausbauwassermenge beträgt 70 m3/s            ; - Ersatzenergie: 	Bezug von Forces Motrices Hongrin-Léman SA bereits unter Zentrale Aarberg aufgeführt    ;                      	Einzelwerte der Zentralen nicht bekannt;                         ; ",https://www.bfe.admin.ch/bfe/de/home/versorgung/statistik-und-geodaten/geoinformation/geodaten/wasser/statistik-der-wasserkraftanlagen.html
"Hagneck 1",,,,Hagneck,CH,2.91,Hydro,Run-of-river,,2016,,,,,"Renewable energy",Hydro,,,"- Ersatzenergie: 	Bezug von Forces Motrices Hongrin-Léman SA  bereits unter Zentrale Aarberg aufgeführt    ;                     	Einzelwerte der Zentralen nicht bekannt; #NAME?;  ;  ;                  	        ; ",https://www.bfe.admin.ch/bfe/de/home/versorgung/statistik-und-geodaten/geoinformation/geodaten/wasser/statistik-der-wasserkraftanlagen.html
"Hagneck 2",,,,Hagneck,CH,20.96,Hydro,Run-of-river,,2015,,47.0596245726,7.17800844643,,"Renewable energy",Hydro,,,"- Ersatzenergie: 	Bezug von Forces Motrices Hongrin-Léman SA  bereits unter Zentrale Aarberg aufgeführt    ;                     	Einzelwerte der Zentralen nicht bekannt;  ;  ; ",https://www.bfe.admin.ch/bfe/de/home/versorgung/statistik-und-geodaten/geoinformation/geodaten/wasser/statistik-der-wasserkraftanlagen.html
"La Dernier",,,,"La Dernier",CH,28,Hydro,Reservoir,,1988,,46.7020995589,6.34993754477,,"Renewable energy",Hydro,,,,https://www.bfe.admin.ch/bfe/de/home/versorgung/statistik-und-geodaten/geoinformation/geodaten/wasser/statistik-der-wasserkraftanlagen.html
"La Jougnenaz",,,,Vallorbe,CH,2.35,Hydro,Run-of-river,,1970,,46.7232276398,6.39660508601,,"Renewable energy",Hydro,,,,https://www.bfe.admin.ch/bfe/de/home/versorgung/statistik-und-geodaten/geoinformation/geodaten/wasser/statistik-der-wasserkraftanlagen.html
"Les Clées",,,,"Les Clées",CH,30,Hydro,Run-of-river,,1955,,46.7311268769,6.44499252092,,"Renewable energy",Hydro,,,,https://www.bfe.admin.ch/bfe/de/home/versorgung/statistik-und-geodaten/geoinformation/geodaten/wasser/statistik-der-wasserkraftanlagen.html
Montcherand,,,,Montcherand,CH,15.5,Hydro,Run-of-river,,1950,,46.7272057233,6.51348662252,,"Renewable energy",Hydro,,,,https://www.bfe.admin.ch/bfe/de/home/versorgung/statistik-und-geodaten/geoinformation/geodaten/wasser/statistik-der-wasserkraftanlagen.html
"Le Chalet",,,,Orbe,CH,2.6,Hydro,Run-of-river,,1988,,46.7277263163,6.52224302381,,"Renewable energy",Hydro,,,,https://www.bfe.admin.ch/bfe/de/home/versorgung/statistik-und-geodaten/geoinformation/geodaten/wasser/statistik-der-wasserkraftanlagen.html
"Moulinets sur l'Orbe",,,,Orbe,CH,0.77,Hydro,Run-of-river,,2013,,46.7209697782,6.53229949585,,"Renewable energy",Hydro,,,,https://www.bfe.admin.ch/bfe/de/home/versorgung/statistik-und-geodaten/geoinformation/geodaten/wasser/statistik-der-wasserkraftanlagen.html
St.Sulpice,,,,St.Sulpice,CH,3.9,Hydro,Run-of-river,,1988,,46.9106213602,6.55745141266,,"Renewable energy",Hydro,,,"- La nouvelle centrale de St.Sulpice remplace entre autres la centrale de La Doux (205800);                                    ; ",https://www.bfe.admin.ch/bfe/de/home/versorgung/statistik-und-geodaten/geoinformation/geodaten/wasser/statistik-der-wasserkraftanlagen.html
"Le Furcil",,,,"Noiraigue, Le Furcil",CH,0.68,Hydro,Run-of-river,,1956,,46.9536626014,6.73186608774,,"Renewable energy",Hydro,,,,https://www.bfe.admin.ch/bfe/de/home/versorgung/statistik-und-geodaten/geoinformation/geodaten/wasser/statistik-der-wasserkraftanlagen.html
"Les Moyats",,,,"Brot-Dessous, Les Moyats",CH,1.6,Hydro,Run-of-river,,1940,,46.9529131011,6.75657368575,,"Renewable energy",Hydro,,,,https://www.bfe.admin.ch/bfe/de/home/versorgung/statistik-und-geodaten/geoinformation/geodaten/wasser/statistik-der-wasserkraftanlagen.html
Combe-Garot,,,,"Boudry, Combe-Garot",CH,4.86,Hydro,Run-of-river,,1961,,46.9623191064,6.79639758751,,"Renewable energy",Hydro,,,,https://www.bfe.admin.ch/bfe/de/home/versorgung/statistik-und-geodaten/geoinformation/geodaten/wasser/statistik-der-wasserkraftanlagen.html
"Usine du Chanet",,,,Boudry,CH,4.4,Hydro,Run-of-river,,1972,,46.9592586149,6.82888645291,,"Renewable energy",Hydro,,,,https://www.bfe.admin.ch/bfe/de/home/versorgung/statistik-und-geodaten/geoinformation/geodaten/wasser/statistik-der-wasserkraftanlagen.html
"Boudry (les Essert)",,,,Boudry,CH,0.5,Hydro,Run-of-river,,2014,,46.9508768262,6.84290644242,,"Renewable energy",Hydro,,,,https://www.bfe.admin.ch/bfe/de/home/versorgung/statistik-und-geodaten/geoinformation/geodaten/wasser/statistik-der-wasserkraftanlagen.html
"La Serrière",,,,"La Serrière, Neuchâtel",CH,1.3,Hydro,Run-of-river,,2016,,,,,"Renewable energy",Hydro,,,,https://www.bfe.admin.ch/bfe/de/home/versorgung/statistik-und-geodaten/geoinformation/geodaten/wasser/statistik-der-wasserkraftanlagen.html
"Sous les Roches",,,,Sonceboz,CH,0.39,Hydro,Run-of-river,,2005,,47.1896143522,7.18396966384,,"Renewable energy",Hydro,,,,https://www.bfe.admin.ch/bfe/de/home/versorgung/statistik-und-geodaten/geoinformation/geodaten/wasser/statistik-der-wasserkraftanlagen.html
Rondchâtel,,,,"Péry, Rondchâtel",CH,3,Hydro,Run-of-river,,2013,,47.1710326223,7.24974576351,,"Renewable energy",Hydro,,,,https://www.bfe.admin.ch/bfe/de/home/versorgung/statistik-und-geodaten/geoinformation/geodaten/wasser/statistik-der-wasserkraftanlagen.html
Frinvillier,,,,Frinvillier,CH,0.35,Hydro,Run-of-river,,2005,,47.1683406671,7.25371218143,,"Renewable energy",Hydro,,,,https://www.bfe.admin.ch/bfe/de/home/versorgung/statistik-und-geodaten/geoinformation/geodaten/wasser/statistik-der-wasserkraftanlagen.html
Taubenloch,,,,Biel-Bözingen,CH,0.32,Hydro,Run-of-river,,2006,,47.1607076521,7.26165130183,,"Renewable energy",Hydro,,,,https://www.bfe.admin.ch/bfe/de/home/versorgung/statistik-und-geodaten/geoinformation/geodaten/wasser/statistik-der-wasserkraftanlagen.html
Bözingen,,,,Bözingen,CH,3.25,Hydro,Run-of-river,,2013,,47.1545087131,7.26655078925,,"Renewable energy",Hydro,,,,https://www.bfe.admin.ch/bfe/de/home/versorgung/statistik-und-geodaten/geoinformation/geodaten/wasser/statistik-der-wasserkraftanlagen.html
Brügg,,,,Brügg,CH,5.2,Hydro,Run-of-river,,1995,,47.1191458966,7.2580998136,,"Renewable energy",Hydro,,,,https://www.bfe.admin.ch/bfe/de/home/versorgung/statistik-und-geodaten/geoinformation/geodaten/wasser/statistik-der-wasserkraftanlagen.html
Wannenfluh,,,,Rüderswil,CH,0.42,Hydro,Run-of-river,,1999,,46.9973291774,7.7219601987,,"Renewable energy",Hydro,,,,https://www.bfe.admin.ch/bfe/de/home/versorgung/statistik-und-geodaten/geoinformation/geodaten/wasser/statistik-der-wasserkraftanlagen.html
"Gohlhaus, Lützelflüh",,,,"Gohlhusbrügg, Lützelflüh",CH,0.42,Hydro,Run-of-river,,2016,,,,,"Renewable energy",Hydro,,,,https://www.bfe.admin.ch/bfe/de/home/versorgung/statistik-und-geodaten/geoinformation/geodaten/wasser/statistik-der-wasserkraftanlagen.html
Hagerhüsli,,,,Bätterkinden,CH,0.5,Hydro,Run-of-river,,2002,,47.1209582677,7.53548691316,,"Renewable energy",Hydro,,,,https://www.bfe.admin.ch/bfe/de/home/versorgung/statistik-und-geodaten/geoinformation/geodaten/wasser/statistik-der-wasserkraftanlagen.html
Bätterkinden,,,,Bätterkinden,CH,0.4,Hydro,Run-of-river,,2002,,47.1330038883,7.54407602098,,"Renewable energy",Hydro,,,,https://www.bfe.admin.ch/bfe/de/home/versorgung/statistik-und-geodaten/geoinformation/geodaten/wasser/statistik-der-wasserkraftanlagen.html
Utzenstorf,,,,Utzenstorf,CH,0.38,Hydro,Run-of-river,,1949,,47.1458646634,7.54607873841,,"Renewable energy",Hydro,,,,https://www.bfe.admin.ch/bfe/de/home/versorgung/statistik-und-geodaten/geoinformation/geodaten/wasser/statistik-der-wasserkraftanlagen.html
"Gerlafingen 1",,,,"Wiler bei Utzenstorf",CH,0.5,Hydro,Run-of-river,,1995,,47.1558500995,7.54477997909,,"Renewable energy",Hydro,,,,https://www.bfe.admin.ch/bfe/de/home/versorgung/statistik-und-geodaten/geoinformation/geodaten/wasser/statistik-der-wasserkraftanlagen.html
Biberist,,,,Biberist,CH,0.5,Hydro,Run-of-river,,1985,,47.1835291625,7.56911004647,,"Renewable energy",Hydro,,,,https://www.bfe.admin.ch/bfe/de/home/versorgung/statistik-und-geodaten/geoinformation/geodaten/wasser/statistik-der-wasserkraftanlagen.html
Emmenhof,,,,Derendingen,CH,0.33,Hydro,Run-of-river,,1986,,47.1948463818,7.582729415,,"Renewable energy",Hydro,,,,https://www.bfe.admin.ch/bfe/de/home/versorgung/statistik-und-geodaten/geoinformation/geodaten/wasser/statistik-der-wasserkraftanlagen.html
"Untere Emmengasse",,,,Luterbach,CH,0.86,Hydro,Run-of-river,,2001,,47.2045650167,7.57919186742,,"Renewable energy",Hydro,,,,https://www.bfe.admin.ch/bfe/de/home/versorgung/statistik-und-geodaten/geoinformation/geodaten/wasser/statistik-der-wasserkraftanlagen.html
Luterbach,,,,Luterbach,CH,0.32,Hydro,Run-of-river,,1988,,47.2141946615,7.57472874781,,"Renewable energy",Hydro,,,,https://www.bfe.admin.ch/bfe/de/home/versorgung/statistik-und-geodaten/geoinformation/geodaten/wasser/statistik-der-wasserkraftanlagen.html
Flumenthal,,,,Riedholz,CH,23.4,Hydro,Run-of-river,,2009,,47.2291069149,7.58995168618,,"Renewable energy",Hydro,,,,https://www.bfe.admin.ch/bfe/de/home/versorgung/statistik-und-geodaten/geoinformation/geodaten/wasser/statistik-der-wasserkraftanlagen.html
Bannwil,,,,Bannwil,CH,28.5,Hydro,Run-of-river,,2000,,47.2293726093,7.73229827172,,"Renewable energy",Hydro,,,,https://www.bfe.admin.ch/bfe/de/home/versorgung/statistik-und-geodaten/geoinformation/geodaten/wasser/statistik-der-wasserkraftanlagen.html
"Wynau I",,,,Oberwynau,CH,12,Hydro,Run-of-river,,1996,,47.2556656529,7.78674041559,,"Renewable energy",Hydro,,,"- Nutzungsdauer:	Bezogen auf die Ausbauwassermenge von 420 m3/s  (Zentralen Wynau und Schwarzhäusern); - Die Konzession wird ab der Kollaudation im Sommer 2016 zu laufen beginnen und beträgt 80 Jahre;                        ;                                         ; ",https://www.bfe.admin.ch/bfe/de/home/versorgung/statistik-und-geodaten/geoinformation/geodaten/wasser/statistik-der-wasserkraftanlagen.html
"Wynau II",,,,Schwarzhäusern,CH,8.2,Hydro,Run-of-river,,1979,,47.2568389099,7.78542689694,,"Renewable energy",Hydro,,,"- Nutzungsdauer: 	Bezogen auf die Ausbauwassermenge von 420 m3/s  (Zentralen Wynau und Schwarzhäusern); - Die Konzession wird ab der Kollaudation 2016 zu laufen beginnen und beträgt 80 Jahre;                           ; ",https://www.bfe.admin.ch/bfe/de/home/versorgung/statistik-und-geodaten/geoinformation/geodaten/wasser/statistik-der-wasserkraftanlagen.html
Ruppoldingen,,,,Boningen,CH,23,Hydro,Run-of-river,,2000,,47.3122915561,7.87770217417,,"Renewable energy",Hydro,,,"- Erste Zentrale Ruppoldingen stand seit 1896 in Betrieb und wurde 1925 erneuert; - Der Ersatz und Neubau der ersten Zentrale wurde im Jahre 2000 in Betrieb genommen;                                ; ",https://www.bfe.admin.ch/bfe/de/home/versorgung/statistik-und-geodaten/geoinformation/geodaten/wasser/statistik-der-wasserkraftanlagen.html
Aarburg,,,,Aarburg,CH,0.42,Hydro,Run-of-river,,2006,,47.3191178376,7.90315413711,,"Renewable energy",Hydro,,,,https://www.bfe.admin.ch/bfe/de/home/versorgung/statistik-und-geodaten/geoinformation/geodaten/wasser/statistik-der-wasserkraftanlagen.html
"Dünnern, Olten",,,,Olten,CH,0.37,Hydro,Run-of-river,,2015,,47.3486379073,7.89864659258,,"Renewable energy",Hydro,,,,https://www.bfe.admin.ch/bfe/de/home/versorgung/statistik-und-geodaten/geoinformation/geodaten/wasser/statistik-der-wasserkraftanlagen.html
Gösgen,,,,Niedergösgen,CH,51.3,Hydro,Run-of-river,,2000,,47.3694251427,7.97945465498,,"Renewable energy",Hydro,,,,https://www.bfe.admin.ch/bfe/de/home/versorgung/statistik-und-geodaten/geoinformation/geodaten/wasser/statistik-der-wasserkraftanlagen.html
"Aarau Stadt",,,,Aarau,CH,16.93,Hydro,Run-of-river,,1964,,47.3947817334,8.03587458337,,"Renewable energy",Hydro,,,,https://www.bfe.admin.ch/bfe/de/home/versorgung/statistik-und-geodaten/geoinformation/geodaten/wasser/statistik-der-wasserkraftanlagen.html
"Rüchlig - HKW",,,,Aarau,CH,9.2,Hydro,Run-of-river,,2014,,47.3997456678,8.0498397695,,"Renewable energy",Hydro,,,,https://www.bfe.admin.ch/bfe/de/home/versorgung/statistik-und-geodaten/geoinformation/geodaten/wasser/statistik-der-wasserkraftanlagen.html
Rüchlig-Dotierzentrale,,,,Aarau,CH,1.2,Hydro,Run-of-river,,2014,,47.3991034678,8.05221688004,,"Renewable energy",Hydro,,,,https://www.bfe.admin.ch/bfe/de/home/versorgung/statistik-und-geodaten/geoinformation/geodaten/wasser/statistik-der-wasserkraftanlagen.html
Rupperswil-Auenstein,,,,Auenstein,CH,40,Hydro,Run-of-river,,1993,,47.411796663,8.1147717897,,"Renewable energy",Hydro,,,"- Ein Synchrongenerator für Bahnstrom 16,7 Hertz; - Ein Synchrongenerator für 50 Hertz ; ",https://www.bfe.admin.ch/bfe/de/home/versorgung/statistik-und-geodaten/geoinformation/geodaten/wasser/statistik-der-wasserkraftanlagen.html
Rupperswil-Auenstein,,,,Rupperswil,CH,1.74,Hydro,Run-of-river,,2010,,47.411796663,8.1147717897,,"Renewable energy",Hydro,,,"- Ersatz alte Zentrale Rupperswil-Dotierzentrale im Jahr 2010;  ; ",https://www.bfe.admin.ch/bfe/de/home/versorgung/statistik-und-geodaten/geoinformation/geodaten/wasser/statistik-der-wasserkraftanlagen.html
Niederlenz,,,,Niederlenz,CH,0.4,Hydro,Run-of-river,,1943,,47.3991885281,8.17621146751,,"Renewable energy",Hydro,,,"- Rechtsgrundlage: Das ehehafte Recht umfasst rd. 18% der Nutzung   ; ",https://www.bfe.admin.ch/bfe/de/home/versorgung/statistik-und-geodaten/geoinformation/geodaten/wasser/statistik-der-wasserkraftanlagen.html
Wildegg-Brugg,,,,Schinznach-Dorf,CH,0.65,Hydro,Run-of-river,,1953,,47.4688460177,8.1698811311,,"Renewable energy",Hydro,,,,https://www.bfe.admin.ch/bfe/de/home/versorgung/statistik-und-geodaten/geoinformation/geodaten/wasser/statistik-der-wasserkraftanlagen.html
Wildegg-Brugg,,,,Villnachern,CH,51.25,Hydro,Run-of-river,,1997,,47.4688460177,8.1698811311,,"Renewable energy",Hydro,,,,https://www.bfe.admin.ch/bfe/de/home/versorgung/statistik-und-geodaten/geoinformation/geodaten/wasser/statistik-der-wasserkraftanlagen.html
Beznau,,,,Döttingen,CH,6.2,Hydro,Run-of-river,,2001,,47.557805126,8.23714123041,,"Renewable energy",Hydro,,,,https://www.bfe.admin.ch/bfe/de/home/versorgung/statistik-und-geodaten/geoinformation/geodaten/wasser/statistik-der-wasserkraftanlagen.html
Beznau,,,,Döttingen,CH,19.5,Hydro,Run-of-river,,1927,,47.557805126,8.23714123041,,"Renewable energy",Hydro,,,,https://www.bfe.admin.ch/bfe/de/home/versorgung/statistik-und-geodaten/geoinformation/geodaten/wasser/statistik-der-wasserkraftanlagen.html
Klingnau,,,,"Klingnau, Gippingen",CH,42.6,Hydro,Run-of-river,,1935,,47.5945791001,8.22572773348,,"Renewable energy",Hydro,,,"#NAME?; ",https://www.bfe.admin.ch/bfe/de/home/versorgung/statistik-und-geodaten/geoinformation/geodaten/wasser/statistik-der-wasserkraftanlagen.html
Hospental,,,,Hospental,CH,2,Hydro,Run-of-river,,1977,,46.6205638209,8.56904462908,,"Renewable energy",Hydro,,,,https://www.bfe.admin.ch/bfe/de/home/versorgung/statistik-und-geodaten/geoinformation/geodaten/wasser/statistik-der-wasserkraftanlagen.html
Realp,,,,Realp,CH,0.9,Hydro,Run-of-river,,2008,,46.5993455879,8.50229746755,,"Renewable energy",Hydro,,,,https://www.bfe.admin.ch/bfe/de/home/versorgung/statistik-und-geodaten/geoinformation/geodaten/wasser/statistik-der-wasserkraftanlagen.html
"Kraftwerk Realp II",,,,Realp,CH,2.81,Hydro,Run-of-river,,2017,,,,,"Renewable energy",Hydro,,,,https://www.bfe.admin.ch/bfe/de/home/versorgung/statistik-und-geodaten/geoinformation/geodaten/wasser/statistik-der-wasserkraftanlagen.html
Oberalp,,,,Andermatt,CH,2.9,Hydro,Run-of-river,,2002,,46.6329580099,8.60678648212,,"Renewable energy",Hydro,,,,https://www.bfe.admin.ch/bfe/de/home/versorgung/statistik-und-geodaten/geoinformation/geodaten/wasser/statistik-der-wasserkraftanlagen.html
"Göschenen (Göscheneralp)",,,,Göschenen,CH,164.8,Hydro,Reservoir,,1962,,46.6673628552,8.5853141019,,"Renewable energy",Hydro,,,"#NAME?; - Zentrale Göschenen (Göscheneralp) produziert mit zwei Maschinen 16,7 Hertz Strom und mit zwei Maschinen;   Dreiphasendrehstrom ;                                                ; ",https://www.bfe.admin.ch/bfe/de/home/versorgung/statistik-und-geodaten/geoinformation/geodaten/wasser/statistik-der-wasserkraftanlagen.html
"Göschenen (Andermatt)",,,,Göschenen,CH,33.26,Hydro,Run-of-river,,1961,,46.6673628552,8.5853141019,,"Renewable energy",Hydro,,,"#NAME?;                                                ; ",https://www.bfe.admin.ch/bfe/de/home/versorgung/statistik-und-geodaten/geoinformation/geodaten/wasser/statistik-der-wasserkraftanlagen.html
"Göschenen (Unterdorf)",,,,Göschenen,CH,1.62,Hydro,Run-of-river,,1969,,46.6678191535,8.58467035968,,"Renewable energy",Hydro,,,,https://www.bfe.admin.ch/bfe/de/home/versorgung/statistik-und-geodaten/geoinformation/geodaten/wasser/statistik-der-wasserkraftanlagen.html
Wassen,,,,Pfaffensprung,CH,58,Hydro,Run-of-river,,1992,,46.7156913962,8.61014697239,,"Renewable energy",Hydro,,,,https://www.bfe.admin.ch/bfe/de/home/versorgung/statistik-und-geodaten/geoinformation/geodaten/wasser/statistik-der-wasserkraftanlagen.html
Amsteg,,,,"Wassen, Pfaffensprung",CH,0.72,Hydro,Run-of-river,,1998,,46.7667596543,8.67292336359,,"Renewable energy",Hydro,,,,https://www.bfe.admin.ch/bfe/de/home/versorgung/statistik-und-geodaten/geoinformation/geodaten/wasser/statistik-der-wasserkraftanlagen.html
"Kraftwerk Gurtnellen",,,,Gurtnellen,CH,10,Hydro,Run-of-river,,2017,,,,,"Renewable energy",Hydro,,,,https://www.bfe.admin.ch/bfe/de/home/versorgung/statistik-und-geodaten/geoinformation/geodaten/wasser/statistik-der-wasserkraftanlagen.html
Stäubenwald,,,,Gurtnellen,CH,0.31,Hydro,Run-of-river,,2007,,46.7281811232,8.62036146626,,"Renewable energy",Hydro,,,,https://www.bfe.admin.ch/bfe/de/home/versorgung/statistik-und-geodaten/geoinformation/geodaten/wasser/statistik-der-wasserkraftanlagen.html
"KW Gurtnellen",,,,Gurtnellen,CH,2.3,Hydro,Run-of-river,,2018,,,,,"Renewable energy",Hydro,,,,https://www.bfe.admin.ch/bfe/de/home/versorgung/statistik-und-geodaten/geoinformation/geodaten/wasser/statistik-der-wasserkraftanlagen.html
"Kraftwerk Bristen",,,,Bristen,CH,4.3,Hydro,Run-of-river,,2016,,,,,"Renewable energy",Hydro,,,,https://www.bfe.admin.ch/bfe/de/home/versorgung/statistik-und-geodaten/geoinformation/geodaten/wasser/statistik-der-wasserkraftanlagen.html
Amsteg,,,,Amsteg,CH,120,Hydro,Run-of-river,,1998,,46.7667596543,8.67292336359,,"Renewable energy",Hydro,,,"- Ersatz alte Zentrale Amsteg im Jahr 1998; - Erzeugt Bahnstrom 16,7 Hertz                                        ; ",https://www.bfe.admin.ch/bfe/de/home/versorgung/statistik-und-geodaten/geoinformation/geodaten/wasser/statistik-der-wasserkraftanlagen.html
Amsteg,,,,Amsteg,CH,1.73,Hydro,Run-of-river,,1998,,46.7667596543,8.67292336359,,"Renewable energy",Hydro,,,,https://www.bfe.admin.ch/bfe/de/home/versorgung/statistik-und-geodaten/geoinformation/geodaten/wasser/statistik-der-wasserkraftanlagen.html
Arniberg,,,,Amsteg,CH,13,Hydro,Run-of-river,,1969,,46.7689944794,8.66590412922,,"Renewable energy",Hydro,,,,https://www.bfe.admin.ch/bfe/de/home/versorgung/statistik-und-geodaten/geoinformation/geodaten/wasser/statistik-der-wasserkraftanlagen.html
"Bocki 2",,,,"Erstfeld, Ripshusen",CH,7,Hydro,Run-of-river,,1997,,46.8409637891,8.63214556041,,"Renewable energy",Hydro,,,"- Zentralen Bocki 1 und Bocki 2 in einem Gebäude              ; ",https://www.bfe.admin.ch/bfe/de/home/versorgung/statistik-und-geodaten/geoinformation/geodaten/wasser/statistik-der-wasserkraftanlagen.html
"Bocki 1",,,,"Erstfeld, Ripshusen",CH,1.7,Hydro,Run-of-river,,1997,,46.8409637891,8.63214556041,,"Renewable energy",Hydro,,,"- Zentralen Bocki 1 und Bocki 2 in einem Gebäude              ; ",https://www.bfe.admin.ch/bfe/de/home/versorgung/statistik-und-geodaten/geoinformation/geodaten/wasser/statistik-der-wasserkraftanlagen.html
Äsch,,,,Unterschächen,CH,0.52,Hydro,Run-of-river,,1996,,46.8652358009,8.81028683203,,"Renewable energy",Hydro,,,,https://www.bfe.admin.ch/bfe/de/home/versorgung/statistik-und-geodaten/geoinformation/geodaten/wasser/statistik-der-wasserkraftanlagen.html
Schächental,,,,Unterschächen,CH,2.2,Hydro,Run-of-river,,2005,,46.8632677495,8.76354152909,,"Renewable energy",Hydro,,,,https://www.bfe.admin.ch/bfe/de/home/versorgung/statistik-und-geodaten/geoinformation/geodaten/wasser/statistik-der-wasserkraftanlagen.html
"Bürglen (Unterschächen)",,,,Bürglen,CH,20.8,Hydro,Run-of-river,,1967,,46.8765292426,8.6633716678,,"Renewable energy",Hydro,,,"#NAME?;                                                  ; ",https://www.bfe.admin.ch/bfe/de/home/versorgung/statistik-und-geodaten/geoinformation/geodaten/wasser/statistik-der-wasserkraftanlagen.html
"Bürglen (Loreto)",,,,Bürglen,CH,1.5,Hydro,Run-of-river,,1967,,46.8765292426,8.6633716678,,"Renewable energy",Hydro,,,"#NAME?;                                                   ; ",https://www.bfe.admin.ch/bfe/de/home/versorgung/statistik-und-geodaten/geoinformation/geodaten/wasser/statistik-der-wasserkraftanlagen.html
Bannwald,,,,Altdorf,CH,0.3,Hydro,Run-of-river,,2002,,46.8868282361,8.64234852845,,"Renewable energy",Hydro,,,"#NAME?; ",https://www.bfe.admin.ch/bfe/de/home/versorgung/statistik-und-geodaten/geoinformation/geodaten/wasser/statistik-der-wasserkraftanlagen.html
"Kleintal (Isenthal)",,,,Isenthal,CH,1.18,Hydro,Run-of-river,,2009,,46.9100429809,8.56226516908,,"Renewable energy",Hydro,,,,https://www.bfe.admin.ch/bfe/de/home/versorgung/statistik-und-geodaten/geoinformation/geodaten/wasser/statistik-der-wasserkraftanlagen.html
"Bolzbach, Seedorf Chuchib. Q.",,,,Seedorf,CH,0.38,Hydro,Run-of-river,,2012,,,,,"Renewable energy",Hydro,,,"#NAME?; ",https://www.bfe.admin.ch/bfe/de/home/versorgung/statistik-und-geodaten/geoinformation/geodaten/wasser/statistik-der-wasserkraftanlagen.html
"Isenthal (Bolzbach)",,,,Seedorf,CH,12,Hydro,Run-of-river,,2009,,46.8992075573,8.59340713177,,"Renewable energy",Hydro,,,"- Zentralen  Isenthal (Bolzbach) und Seedorf (Bolzbach)) in einem Gebäude; ",https://www.bfe.admin.ch/bfe/de/home/versorgung/statistik-und-geodaten/geoinformation/geodaten/wasser/statistik-der-wasserkraftanlagen.html
Ruosalp,,,,"Bisisthal, Sahli",CH,4.7,Hydro,Run-of-river,,1962,,46.9176188126,8.84549886362,,"Renewable energy",Hydro,,,"#NAME?; ",https://www.bfe.admin.ch/bfe/de/home/versorgung/statistik-und-geodaten/geoinformation/geodaten/wasser/statistik-der-wasserkraftanlagen.html
Glattalp,,,,"Bisisthal, Sahli",CH,9.3,Hydro,Run-of-river,,1970,,46.9176188126,8.84549886362,,"Renewable energy",Hydro,,,"#NAME?; ",https://www.bfe.admin.ch/bfe/de/home/versorgung/statistik-und-geodaten/geoinformation/geodaten/wasser/statistik-der-wasserkraftanlagen.html
Bisisthal,,,,Bisisthal,CH,15.8,Hydro,Run-of-river,,1962,,46.9466216843,8.82799774611,,"Renewable energy",Hydro,,,,https://www.bfe.admin.ch/bfe/de/home/versorgung/statistik-und-geodaten/geoinformation/geodaten/wasser/statistik-der-wasserkraftanlagen.html
Muota,,,,Muotathal,CH,8.8,Hydro,Run-of-river,,1960,,46.9710051496,8.78249669152,,"Renewable energy",Hydro,,,"#NAME?; ",https://www.bfe.admin.ch/bfe/de/home/versorgung/statistik-und-geodaten/geoinformation/geodaten/wasser/statistik-der-wasserkraftanlagen.html
Hüribach,,,,Muotathal,CH,4.7,Hydro,Run-of-river,,1960,,46.9710051496,8.78249669152,,"Renewable energy",Hydro,,,"#NAME?; ",https://www.bfe.admin.ch/bfe/de/home/versorgung/statistik-und-geodaten/geoinformation/geodaten/wasser/statistik-der-wasserkraftanlagen.html
Wernisberg,,,,Ibach,CH,20.4,Hydro,Run-of-river,,1966,,46.9962188228,8.65124425665,,"Renewable energy",Hydro,,,,https://www.bfe.admin.ch/bfe/de/home/versorgung/statistik-und-geodaten/geoinformation/geodaten/wasser/statistik-der-wasserkraftanlagen.html
Ibach,,,,Ibach,CH,0.32,Hydro,Run-of-river,,2004,,47.0071473786,8.64715120305,,"Renewable energy",Hydro,,,,https://www.bfe.admin.ch/bfe/de/home/versorgung/statistik-und-geodaten/geoinformation/geodaten/wasser/statistik-der-wasserkraftanlagen.html
"Kleinwasserkraftwerk Steineraa",,,,"Steinen, Müliacher",CH,2.2,Hydro,Run-of-river,,2016,,,,,"Renewable energy",Hydro,,,,https://www.bfe.admin.ch/bfe/de/home/versorgung/statistik-und-geodaten/geoinformation/geodaten/wasser/statistik-der-wasserkraftanlagen.html
Sustli,,,,Beckenried,CH,1.63,Hydro,Run-of-river,,1998,,46.963776447,8.48336356408,,"Renewable energy",Hydro,,,,https://www.bfe.admin.ch/bfe/de/home/versorgung/statistik-und-geodaten/geoinformation/geodaten/wasser/statistik-der-wasserkraftanlagen.html
Tagenstal,,,,"Engelberg, Stalden",CH,1.27,Hydro,Run-of-river,,1941,,46.8056049248,8.44557705375,,"Renewable energy",Hydro,,,,https://www.bfe.admin.ch/bfe/de/home/versorgung/statistik-und-geodaten/geoinformation/geodaten/wasser/statistik-der-wasserkraftanlagen.html
Trüebsee,,,,Engelberg,CH,8.5,Hydro,Reservoir,,1967,,,,,"Renewable energy",Hydro,,,,https://www.bfe.admin.ch/bfe/de/home/versorgung/statistik-und-geodaten/geoinformation/geodaten/wasser/statistik-der-wasserkraftanlagen.html
"Arni, Engelberg",,,,Engelberg,CH,3.07,Hydro,Run-of-river,,1966,,,,,"Renewable energy",Hydro,,,,https://www.bfe.admin.ch/bfe/de/home/versorgung/statistik-und-geodaten/geoinformation/geodaten/wasser/statistik-der-wasserkraftanlagen.html
Obermatt,,,,Grafenort,CH,31.95,Hydro,Run-of-river,,1963,,46.8421091009,8.3737585174,,"Renewable energy",Hydro,,,,https://www.bfe.admin.ch/bfe/de/home/versorgung/statistik-und-geodaten/geoinformation/geodaten/wasser/statistik-der-wasserkraftanlagen.html
"Obermatt (Nebenkraftwerk)",,,,Grafenort,CH,1.97,Hydro,Run-of-river,,1963,,46.8429378906,8.37141299362,,"Renewable energy",Hydro,,,,https://www.bfe.admin.ch/bfe/de/home/versorgung/statistik-und-geodaten/geoinformation/geodaten/wasser/statistik-der-wasserkraftanlagen.html
Dallenwil,,,,Wolfenschiessen,CH,17.75,Hydro,Run-of-river,,1987,,46.9116636808,8.39360887478,,"Renewable energy",Hydro,,,,https://www.bfe.admin.ch/bfe/de/home/versorgung/statistik-und-geodaten/geoinformation/geodaten/wasser/statistik-der-wasserkraftanlagen.html
"Buoholzbach Wolfenschiessen",,,,"Wolfenschiessen, Flüglisloo",CH,2,Hydro,Run-of-river,,2013,,46.9270904029,8.3991353836,,"Renewable energy",Hydro,,,,https://www.bfe.admin.ch/bfe/de/home/versorgung/statistik-und-geodaten/geoinformation/geodaten/wasser/statistik-der-wasserkraftanlagen.html
Bannalp,,,,Oberrickenbach,CH,8.7,Hydro,Reservoir,,1991,,46.8803037351,8.42125996207,,"Renewable energy",Hydro,,,"- Rechtsgrundlage: Eigenversorgungsgesetz vom 29.4.1934         ; ",https://www.bfe.admin.ch/bfe/de/home/versorgung/statistik-und-geodaten/geoinformation/geodaten/wasser/statistik-der-wasserkraftanlagen.html
Wolfenschiessen,,,,Wolfenschiessen,CH,6.6,Hydro,Run-of-river,,1983,,46.9012025691,8.39670437623,,"Renewable energy",Hydro,,,"- Rechtsgrundlage: Eigenversorgungsgesetz vom 29.4.1934         ; ",https://www.bfe.admin.ch/bfe/de/home/versorgung/statistik-und-geodaten/geoinformation/geodaten/wasser/statistik-der-wasserkraftanlagen.html
Schild,,,,Lungern,CH,1.2,Hydro,Run-of-river,,2003,,46.7798141191,8.15569252116,,"Renewable energy",Hydro,,,,https://www.bfe.admin.ch/bfe/de/home/versorgung/statistik-und-geodaten/geoinformation/geodaten/wasser/statistik-der-wasserkraftanlagen.html
"Unteraa - Melchaa",,,,Giswil,CH,12,Hydro,Reservoir,,2013,,46.8214351941,8.1744623486,,"Renewable energy",Hydro,,,"#NAME?;  ; ",https://www.bfe.admin.ch/bfe/de/home/versorgung/statistik-und-geodaten/geoinformation/geodaten/wasser/statistik-der-wasserkraftanlagen.html
"Unteraa - Lungerersee",,,,Giswil,CH,54,Hydro,Reservoir,,1994,,46.8214351941,8.1744623486,,"Renewable energy",Hydro,,,"- Ersatz alte Zentrale Unteraa im Jahr 1994; #NAME?; - Maschinengruppe 4 mit 6MW Leistung erzeugt Bahnstrom (SBB)                                       ; ",https://www.bfe.admin.ch/bfe/de/home/versorgung/statistik-und-geodaten/geoinformation/geodaten/wasser/statistik-der-wasserkraftanlagen.html
"Obflue, Sachseln",,,,"Sachseln, Obflue",CH,0.3,Hydro,Run-of-river,,2005,,46.857050951,8.22950231798,,"Renewable energy",Hydro,,,"- Das Quellenrecht beinhaltet die Nutzung des Wasser für Trink- und Brauchzwecke, sowie der Turbinierung;   zur Stromproduktion.;  ; ",https://www.bfe.admin.ch/bfe/de/home/versorgung/statistik-und-geodaten/geoinformation/geodaten/wasser/statistik-der-wasserkraftanlagen.html
Melchsee-Frutt,,,,"Kerns, Stöckalp",CH,14,Hydro,Reservoir,,1960,,46.799646307,8.28145261421,,"Renewable energy",Hydro,,,"- Genutzte Gewässer:  Henglibach wird nur vom 16.Mai bis 31.Juli genutzt;                                                          ; ",https://www.bfe.admin.ch/bfe/de/home/versorgung/statistik-und-geodaten/geoinformation/geodaten/wasser/statistik-der-wasserkraftanlagen.html
Wisserlen,,,,"Kerns, Wisserlen",CH,1.15,Hydro,Run-of-river,,1997,,46.9102736664,8.29644423422,,"Renewable energy",Hydro,,,,https://www.bfe.admin.ch/bfe/de/home/versorgung/statistik-und-geodaten/geoinformation/geodaten/wasser/statistik-der-wasserkraftanlagen.html
Eichi,,,,"Alpnach, Eichibrücke",CH,2.4,Hydro,Run-of-river,,1957,,46.9407431769,8.28786773153,,"Renewable energy",Hydro,,,,https://www.bfe.admin.ch/bfe/de/home/versorgung/statistik-und-geodaten/geoinformation/geodaten/wasser/statistik-der-wasserkraftanlagen.html
Rotzloch,,,,"Stansstad, Rotzloch",CH,0.3,Hydro,Run-of-river,,1935,,46.9648831886,8.33108666537,,"Renewable energy",Hydro,,,,https://www.bfe.admin.ch/bfe/de/home/versorgung/statistik-und-geodaten/geoinformation/geodaten/wasser/statistik-der-wasserkraftanlagen.html
Mühlenplatz,,,,Luzern,CH,0.93,Hydro,Run-of-river,,1998,,47.0517337725,8.30199665485,,"Renewable energy",Hydro,,,,https://www.bfe.admin.ch/bfe/de/home/versorgung/statistik-und-geodaten/geoinformation/geodaten/wasser/statistik-der-wasserkraftanlagen.html
"Wolhusen (Geistlich)",,,,Wolhusen,CH,0.33,Hydro,Run-of-river,,2003,,47.0550001861,8.07763365713,,"Renewable energy",Hydro,,,,https://www.bfe.admin.ch/bfe/de/home/versorgung/statistik-und-geodaten/geoinformation/geodaten/wasser/statistik-der-wasserkraftanlagen.html
Malters-Ettisbühl,,,,Malters,CH,0.87,Hydro,Run-of-river,,2011,,47.0382855313,8.16559322075,,"Renewable energy",Hydro,,,,https://www.bfe.admin.ch/bfe/de/home/versorgung/statistik-und-geodaten/geoinformation/geodaten/wasser/statistik-der-wasserkraftanlagen.html
Stollen,,,,Kriens/Obernau,CH,0.71,Hydro,Run-of-river,,1999,,47.0337616233,8.23723761716,,"Renewable energy",Hydro,,,"#NAME?; ",https://www.bfe.admin.ch/bfe/de/home/versorgung/statistik-und-geodaten/geoinformation/geodaten/wasser/statistik-der-wasserkraftanlagen.html
Thorenberg,,,,Littau,CH,0.79,Hydro,Run-of-river,,2000,,47.0525764602,8.24804704827,,"Renewable energy",Hydro,,,,https://www.bfe.admin.ch/bfe/de/home/versorgung/statistik-und-geodaten/geoinformation/geodaten/wasser/statistik-der-wasserkraftanlagen.html
Emmenweid,,,,Emmenbrücke,CH,1.08,Hydro,Run-of-river,,2003,,47.0670379793,8.26366866258,,"Renewable energy",Hydro,,,,https://www.bfe.admin.ch/bfe/de/home/versorgung/statistik-und-geodaten/geoinformation/geodaten/wasser/statistik-der-wasserkraftanlagen.html
Rathausen,,,,Emmen,CH,2.1,Hydro,Run-of-river,,1980,,47.0817753951,8.3143325152,,"Renewable energy",Hydro,,,,https://www.bfe.admin.ch/bfe/de/home/versorgung/statistik-und-geodaten/geoinformation/geodaten/wasser/statistik-der-wasserkraftanlagen.html
"Perlen 1 (WTA HF)",,,,"Perlen, Buchrain",CH,1,Hydro,Run-of-river,,1981,,47.1071639177,8.35769882857,,"Renewable energy",Hydro,,,,https://www.bfe.admin.ch/bfe/de/home/versorgung/statistik-und-geodaten/geoinformation/geodaten/wasser/statistik-der-wasserkraftanlagen.html
"Perlen 2 (WTA PF)",,,,"Perlen, Root",CH,1.15,Hydro,Run-of-river,,2000,,47.111127653,8.36817610462,,"Renewable energy",Hydro,,,,https://www.bfe.admin.ch/bfe/de/home/versorgung/statistik-und-geodaten/geoinformation/geodaten/wasser/statistik-der-wasserkraftanlagen.html
"Innere Spinnerei",,,,Unterägeri,CH,0.45,Hydro,Run-of-river,,1981,,47.1403291209,8.57250348397,,"Renewable energy",Hydro,,,,https://www.bfe.admin.ch/bfe/de/home/versorgung/statistik-und-geodaten/geoinformation/geodaten/wasser/statistik-der-wasserkraftanlagen.html
"WKW Neuägeri, Gmde Menzingen",,,,"Neuägeri, Gmde Menzingen",CH,0.34,Hydro,Run-of-river,,2015,,47.1528364463,8.56301002572,,"Renewable energy",Hydro,,,,https://www.bfe.admin.ch/bfe/de/home/versorgung/statistik-und-geodaten/geoinformation/geodaten/wasser/statistik-der-wasserkraftanlagen.html
"Lorzentobel 2",,,,"Lorzentobel, Nidfuren",CH,1.9,Hydro,Run-of-river,,1943,,47.1720203925,8.56064287994,,"Renewable energy",Hydro,,,,https://www.bfe.admin.ch/bfe/de/home/versorgung/statistik-und-geodaten/geoinformation/geodaten/wasser/statistik-der-wasserkraftanlagen.html
"Lorzentobel 1",,,,Lorzentobel,CH,1.67,Hydro,Run-of-river,,2005,,47.1803537205,8.55474850407,,"Renewable energy",Hydro,,,,https://www.bfe.admin.ch/bfe/de/home/versorgung/statistik-und-geodaten/geoinformation/geodaten/wasser/statistik-der-wasserkraftanlagen.html
"Lorzentobel 3",,,,Baar,CH,2.17,Hydro,Run-of-river,,2005,,47.1957044664,8.53936374921,,"Renewable energy",Hydro,,,,https://www.bfe.admin.ch/bfe/de/home/versorgung/statistik-und-geodaten/geoinformation/geodaten/wasser/statistik-der-wasserkraftanlagen.html
Untermühle,,,,"Friesencham, Cham",CH,0.6,Hydro,Run-of-river,,2010,,47.1964928952,8.44330123323,,"Renewable energy",Hydro,,,,https://www.bfe.admin.ch/bfe/de/home/versorgung/statistik-und-geodaten/geoinformation/geodaten/wasser/statistik-der-wasserkraftanlagen.html
Hagendorn,,,,Hagendorn,CH,0.58,Hydro,Run-of-river,,2010,,47.2016699737,8.43759101386,,"Renewable energy",Hydro,,,,https://www.bfe.admin.ch/bfe/de/home/versorgung/statistik-und-geodaten/geoinformation/geodaten/wasser/statistik-der-wasserkraftanlagen.html
Bremgarten-Zufikon,,,,Bremgarten,CH,20,Hydro,Run-of-river,,1975,,47.3436544275,8.34562802508,,"Renewable energy",Hydro,,,,https://www.bfe.admin.ch/bfe/de/home/versorgung/statistik-und-geodaten/geoinformation/geodaten/wasser/statistik-der-wasserkraftanlagen.html
Bruggmühle,,,,Bremgarten,CH,0.54,Hydro,Run-of-river,,1998,,47.3497309812,8.33924607379,,"Renewable energy",Hydro,,,,https://www.bfe.admin.ch/bfe/de/home/versorgung/statistik-und-geodaten/geoinformation/geodaten/wasser/statistik-der-wasserkraftanlagen.html
Windisch,,,,Windisch,CH,2.09,Hydro,Run-of-river,,2016,,47.4813098091,8.23042079077,,"Renewable energy",Hydro,,,"- 2016: Maschinengruppe 3 und Kanaltore erneuert; - 1918/1919: Bau eines neuen Turbinenhauses; - 1927 Anbau Maschinenhaus und Einbau einer Propellerturbine; ",https://www.bfe.admin.ch/bfe/de/home/versorgung/statistik-und-geodaten/geoinformation/geodaten/wasser/statistik-der-wasserkraftanlagen.html
Limmern,,,,"Linthal, Ochsenstafel",CH,1000,Hydro,"Pumped storage",,2016,,,,,"Renewable energy",Hydro,,,"#NAME?;  ;  ; ",https://www.bfe.admin.ch/bfe/de/home/versorgung/statistik-und-geodaten/geoinformation/geodaten/wasser/statistik-der-wasserkraftanlagen.html
"Tierfehd (Limmern)",,,,"Linthal, Tierfehd",CH,306,Hydro,Reservoir,,1964,,46.8761153436,8.98702934899,12W-0000000018-B,"Renewable energy",Hydro,,,"#NAME?; #NAME?;  ;                                     ; ",https://www.bfe.admin.ch/bfe/de/home/versorgung/statistik-und-geodaten/geoinformation/geodaten/wasser/statistik-der-wasserkraftanlagen.html
"Tierfehd (Umwälzwerk)",,,,"Linthal, Tierfehd",CH,137.9,Hydro,"Pumped storage with natural inflow",,2010,,46.8787500802,8.98513704227,12W-0000000018-B,"Renewable energy",Hydro,,,"#NAME?;  ; ",https://www.bfe.admin.ch/bfe/de/home/versorgung/statistik-und-geodaten/geoinformation/geodaten/wasser/statistik-der-wasserkraftanlagen.html
"Tierfehd (Hintersand)",,,,"Linthal, Tierfehd",CH,46,Hydro,Run-of-river,,1968,,46.8761153436,8.98702934899,12W-0000000018-B,"Renewable energy",Hydro,,,"#NAME?; #NAME?;     ;   ; ",https://www.bfe.admin.ch/bfe/de/home/versorgung/statistik-und-geodaten/geoinformation/geodaten/wasser/statistik-der-wasserkraftanlagen.html
